"city","city_ascii","state_id","state_name","county_fips","county_name","county_fips_all","county_name_all","lat","lng","population","density","source","military","incorporated","timezone","ranking","zips","id"
"South Creek","South Creek","WA","Washington","53053","Pierce","53053","Pierce","46.9994","-122.3921","2500","125","polygon","FALSE","TRUE","America/Los_Angeles","3","98580 98387 98338","1840042075"
"Roslyn","Roslyn","WA","Washington","53037","Kittitas","53037","Kittitas","47.2507","-121.0989","947","84","polygon","FALSE","TRUE","America/Los_Angeles","3","98941 98068 98925","1840019842"
"Sprague","Sprague","WA","Washington","53043","Lincoln","53043","Lincoln","47.3048","-117.9713","441","163","polygon","FALSE","TRUE","America/Los_Angeles","3","99032","1840021107"
"Gig Harbor","Gig Harbor","WA","Washington","53053","Pierce","53053","Pierce","47.3352","-122.5968","9507","622","polygon","FALSE","TRUE","America/Los_Angeles","3","98332 98335","1840019855"
"Lake Cassidy","Lake Cassidy","WA","Washington","53061","Snohomish","53061","Snohomish","48.0639","-122.0920","3591","131","polygon","FALSE","TRUE","America/Los_Angeles","3","98223 98258 98270","1840041959"
"Tenino","Tenino","WA","Washington","53067","Thurston","53067","Thurston","46.8537","-122.8607","1830","491","polygon","FALSE","TRUE","America/Los_Angeles","3","98589","1840021144"
"Jamestown","Jamestown","WA","Washington","53009","Clallam","53009","Clallam","48.1229","-123.0911","289","191","polygon","FALSE","FALSE","America/Los_Angeles","3","98382","1840037668"
"Three Lakes","Three Lakes","WA","Washington","53061","Snohomish","53061","Snohomish","47.9420","-121.9924","3390","112","polygon","FALSE","FALSE","America/Los_Angeles","3","98290","1840018375"
"Curlew Lake","Curlew Lake","WA","Washington","53019","Ferry","53019","Ferry","48.7311","-118.6663","573","50","polygon","FALSE","TRUE","America/Los_Angeles","3","99166","1840043278"
"Chain Lake","Chain Lake","WA","Washington","53061","Snohomish","53061","Snohomish","47.9038","-121.9861","4280","156","polygon","FALSE","TRUE","America/Los_Angeles","3","98290","1840041915"
"Pateros","Pateros","WA","Washington","53047","Okanogan","53047","Okanogan","48.0536","-119.8994","701","536","polygon","FALSE","TRUE","America/Los_Angeles","3","98846","1840019763"
"Rosburg","Rosburg","WA","Washington","53069","Wahkiakum","53069","Wahkiakum","46.3076","-123.6344","385","6","polygon","FALSE","FALSE","America/Los_Angeles","3","98643","1840023878"
"Parkland","Parkland","WA","Washington","53053","Pierce","53053","Pierce","47.1417","-122.4376","37019","1653","polygon","FALSE","FALSE","America/Los_Angeles","3","98444 98445 98447 98448","1840018453"
"Birch Bay","Birch Bay","WA","Washington","53073","Whatcom","53073","Whatcom","48.9230","-122.7543","8642","208","polygon","FALSE","FALSE","America/Los_Angeles","3","98230","1840017289"
"Ashford","Ashford","WA","Washington","53053","Pierce","53053","Pierce","46.7537","-122.0113","162","30","polygon","FALSE","FALSE","America/Los_Angeles","3","98304","1840017363"
"Navy Yard City","Navy Yard City","WA","Washington","53035","Kitsap","53035","Kitsap","47.5508","-122.6655","3154","1978","polygon","FALSE","FALSE","America/Los_Angeles","3","98312","1840018407"
"Omak","Omak","WA","Washington","53047","Okanogan","53047","Okanogan","48.4228","-119.5159","8130.0","478","polygon","FALSE","TRUE","America/Los_Angeles","3","98841","1840019761"
"Farmington","Farmington","WA","Washington","53075","Whitman","53075","Whitman","47.0887","-117.0464","154","164","polygon","FALSE","TRUE","America/Los_Angeles","3","99128","1840021140"
"Buckley","Buckley","WA","Washington","53053","Pierce","53053","Pierce","47.1615","-122.0200","4819","482","polygon","FALSE","TRUE","America/Los_Angeles","3","98321","1840018455"
"Cathcart","Cathcart","WA","Washington","53061","Snohomish","53061","Snohomish","47.8525","-122.1058","2506","250","polygon","FALSE","FALSE","America/Los_Angeles","3","98296","1840017324"
"Poulsbo","Poulsbo","WA","Washington","53035","Kitsap","53035","Kitsap","47.7417","-122.6408","10670","869","polygon","FALSE","TRUE","America/Los_Angeles","3","98370","1840019822"
"Anacortes","Anacortes","WA","Washington","53057","Skagit","53057","Skagit","48.4878","-122.6292","17955.0","559","polygon","FALSE","TRUE","America/Los_Angeles","3","98221","1840018366"
"Maplewood","Maplewood","WA","Washington","53053","Pierce","53053","Pierce","47.3715","-122.5689","5340","248","polygon","FALSE","FALSE","America/Los_Angeles","3","98332","1840037569"
"Creston","Creston","WA","Washington","53043","Lincoln","53043","Lincoln","47.7595","-118.5200","226","212","polygon","FALSE","TRUE","America/Los_Angeles","3","99117","1840021109"
"Rockford","Rockford","WA","Washington","53063","Spokane","53063","Spokane","47.4513","-117.1307","477","271","polygon","FALSE","TRUE","America/Los_Angeles","3","99030","1840021095"
"Wishram","Wishram","WA","Washington","53039","Klickitat","53039","Klickitat","45.6599","-120.9698","438","131","polygon","FALSE","FALSE","America/Los_Angeles","3","98673","1840018528"
"Centralia","Centralia","WA","Washington","53041","Lewis","53041","Lewis","46.7225","-122.9695","41643.0","883","polygon","FALSE","TRUE","America/Los_Angeles","3","98531","1840018471"
"South Hill","South Hill","WA","Washington","53053","Pierce","53053","Pierce","47.1203","-122.2848","56379","1185","polygon","FALSE","FALSE","America/Los_Angeles","3","98375 98374 98373","1840037886"
"Longview Heights","Longview Heights","WA","Washington","53015","Cowlitz","53015","Cowlitz","46.1796","-122.9577","3678","337","polygon","FALSE","FALSE","America/Los_Angeles","3","98632","1840037874"
"Erlands Point-Kitsap Lake","Erlands Point-Kitsap Lake","WA","Washington","53035","Kitsap","53035","Kitsap","47.5973","-122.7021","2973","655","polygon","FALSE","TRUE","America/Los_Angeles","3","98312","1840073915"
"Amboy","Amboy","WA","Washington","53011","Clark","53011","Clark","45.9122","-122.4795","2027","78","polygon","FALSE","FALSE","America/Los_Angeles","3","98601 98675","1840017396"
"St. John","St. John","WA","Washington","53075","Whitman","53075","Whitman","47.0915","-117.5887","561","322","polygon","FALSE","TRUE","America/Los_Angeles","3","99171","1840021139"
"Dallesport","Dallesport","WA","Washington","53039","Klickitat","53039","Klickitat","45.6316","-121.1749","1739","99","polygon","FALSE","FALSE","America/Los_Angeles","3","98617 98635","1840018525"
"Ketron Island","Ketron Island","WA","Washington","53053","Pierce","53053","Pierce","47.1569","-122.6343","0","0","polygon","FALSE","TRUE","America/Los_Angeles","3","98388","1840037558"
"Mesa","Mesa","WA","Washington","53021","Franklin","53021","Franklin","46.5737","-119.0013","503","119","polygon","FALSE","TRUE","America/Los_Angeles","3","99326 99343","1840019887"
"Fife","Fife","WA","Washington","53053","Pierce","53053","Pierce","47.2328","-122.3518","10154","684","polygon","FALSE","TRUE","America/Los_Angeles","3","98424","1840019853"
"Moses Lake North","Moses Lake North","WA","Washington","53025","Grant","53025","Grant","47.1949","-119.3186","3787","264","polygon","FALSE","TRUE","America/Los_Angeles","3","98837","1840074436"
"Chewelah","Chewelah","WA","Washington","53065","Stevens","53065","Stevens","48.2929","-117.7336","2637","341","polygon","FALSE","TRUE","America/Los_Angeles","3","99109","1840018360"
"Grayland","Grayland","WA","Washington","53027","Grays Harbor","53027","Grays Harbor","46.8304","-124.0898","756","42","polygon","FALSE","FALSE","America/Los_Angeles","3","98547","1840017360"
"Kittitas","Kittitas","WA","Washington","53037","Kittitas","53037","Kittitas","46.9837","-120.4191","1491","729","polygon","FALSE","TRUE","America/Los_Angeles","3","98934 98926","1840019843"
"Camano","Camano","WA","Washington","53029","Island","53029","Island","48.1865","-122.4708","15989","155","polygon","FALSE","FALSE","America/Los_Angeles","3","98282","1840037492"
"Monroe North","Monroe North","WA","Washington","53061","Snohomish","53061","Snohomish","47.8830","-121.9882","1704","282","polygon","FALSE","TRUE","America/Los_Angeles","3","98290 98272","1840042006"
"North Bonneville","North Bonneville","WA","Washington","53059","Skamania","53059","Skamania","45.6425","-121.9689","999","154","polygon","FALSE","TRUE","America/Los_Angeles","3","98648 98639","1840019903"
"Klickitat","Klickitat","WA","Washington","53039","Klickitat","53039","Klickitat","45.8180","-121.1626","358","147","polygon","FALSE","FALSE","America/Los_Angeles","3","98628","1840017404"
"Loon Lake","Loon Lake","WA","Washington","53065","Stevens","53065","Stevens","48.0685","-117.6298","784","92","polygon","FALSE","FALSE","America/Los_Angeles","3","99148","1840023998"
"Newport","Newport","WA","Washington","53051","Pend Oreille","53051","Pend Oreille","48.1788","-117.0545","2635.0","624","polygon","FALSE","TRUE","America/Los_Angeles","3","99156","1840019765"
"Mead","Mead","WA","Washington","53063","Spokane","53063","Spokane","47.7795","-117.3500","6859","364","polygon","FALSE","FALSE","America/Los_Angeles","3","99021","1840023786"
"Cashmere","Cashmere","WA","Washington","53007","Chelan","53007","Chelan","47.5175","-120.4671","4864.0","1061","polygon","FALSE","TRUE","America/Los_Angeles","3","98815","1840018368"
"Aberdeen Gardens","Aberdeen Gardens","WA","Washington","53027","Grays Harbor","53027","Grays Harbor","47.0587","-123.7791","283","67","polygon","FALSE","FALSE","America/Los_Angeles","3","98520","1840037845"
"Ocean Shores","Ocean Shores","WA","Washington","53027","Grays Harbor","53027","Grays Harbor","46.9685","-124.1521","5553.0","268","polygon","FALSE","TRUE","America/Los_Angeles","3","98569","1840019849"
"Basin City","Basin City","WA","Washington","53021","Franklin","53021","Franklin","46.5891","-119.1567","1281","155","polygon","FALSE","FALSE","America/Los_Angeles","3","99343","1840017379"
"Wilkeson","Wilkeson","WA","Washington","53053","Pierce","53053","Pierce","47.1034","-122.0495","507","420","polygon","FALSE","TRUE","America/Los_Angeles","3","98396","1840022310"
"Meadow Glade","Meadow Glade","WA","Washington","53011","Clark","53011","Clark","45.7524","-122.5614","2895","307","polygon","FALSE","FALSE","America/Los_Angeles","3","98604","1840018517"
"Arlington Heights","Arlington Heights","WA","Washington","53061","Snohomish","53061","Snohomish","48.2119","-122.0630","2826","129","polygon","FALSE","FALSE","America/Los_Angeles","3","98223","1840037743"
"Uniontown","Uniontown","WA","Washington","53075","Whitman","53075","Whitman","46.5391","-117.0861","343","143","polygon","FALSE","TRUE","America/Los_Angeles","3","99179","1840022316"
"Oakesdale","Oakesdale","WA","Washington","53075","Whitman","53075","Whitman","47.1305","-117.2465","442","164","polygon","FALSE","TRUE","America/Los_Angeles","3","99158","1840022314"
"West Side Highway","West Side Highway","WA","Washington","53015","Cowlitz","53015","Cowlitz","46.1841","-122.9178","5902","901","polygon","FALSE","TRUE","America/Los_Angeles","3","98626 98632","1840037246"
"Conconully","Conconully","WA","Washington","53047","Okanogan","53047","Okanogan","48.5571","-119.7513","208","300","polygon","FALSE","TRUE","America/Los_Angeles","3","98819","1840022269"
"Latah","Latah","WA","Washington","53063","Spokane","53063","Spokane","47.2822","-117.1557","187","225","polygon","FALSE","TRUE","America/Los_Angeles","3","99018","1840021097"
"Elma","Elma","WA","Washington","53027","Grays Harbor","53027","Grays Harbor","47.0055","-123.4112","3092","468","polygon","FALSE","TRUE","America/Los_Angeles","3","98541","1840019844"
"Tieton","Tieton","WA","Washington","53077","Yakima","53077","Yakima","46.7026","-120.7560","1294","570","polygon","FALSE","TRUE","America/Los_Angeles","3","98947","1840022319"
"Southworth","Southworth","WA","Washington","53035","Kitsap","53035","Kitsap","47.5126","-122.5298","2280","260","polygon","FALSE","FALSE","America/Los_Angeles","3","98366 98384 98386","1840023800"
"Danville","Danville","WA","Washington","53019","Ferry","53019","Ferry","48.9938","-118.5068","19","41","polygon","FALSE","FALSE","America/Los_Angeles","3","99121","1840037761"
"Toppenish","Toppenish","WA","Washington","53077","Yakima","53077","Yakima","46.3807","-120.3125","14441.0","1627","polygon","FALSE","TRUE","America/Los_Angeles","3","98948","1840021151"
"River Road","River Road","WA","Washington","53009","Clallam","53009","Clallam","48.0677","-123.1276","952","1055","polygon","FALSE","FALSE","America/Los_Angeles","3","98382","1840037861"
"Geneva","Geneva","WA","Washington","53073","Whatcom","53073","Whatcom","48.7461","-122.4064","2632","958","polygon","FALSE","FALSE","America/Los_Angeles","3","98229","1840017291"
"Yakima","Yakima","WA","Washington","53077","Yakima","53077","Yakima","46.5923","-120.5496","133233.0","1302","polygon","FALSE","TRUE","America/Los_Angeles","2","98901 98903 98902 98908 98904 98907","1840021154"
"Moxee","Moxee","WA","Washington","53077","Yakima","53077","Yakima","46.5638","-120.3968","4032","670","polygon","FALSE","TRUE","America/Los_Angeles","3","98936 98901","1840037381"
"Edmonds","Edmonds","WA","Washington","53061","Snohomish","53061","Snohomish","47.8114","-122.3533","42209","1829","polygon","FALSE","TRUE","America/Los_Angeles","3","98026 98020","1840037645"
"Kalama","Kalama","WA","Washington","53015","Cowlitz","53015","Cowlitz","46.0171","-122.8393","3794.0","297","polygon","FALSE","TRUE","America/Los_Angeles","3","98625","1840018502"
"Laurier","Laurier","WA","Washington","53019","Ferry","53019","Ferry","48.9974","-118.2248","0","0","polygon","FALSE","FALSE","America/Los_Angeles","3","99146","1840026092"
"Vashon","Vashon","WA","Washington","53033","King","53033","King","47.4122","-122.4726","9635","100","polygon","FALSE","FALSE","America/Los_Angeles","3","98070 98013","1840018414"
"Country Homes","Country Homes","WA","Washington","53063","Spokane","53063","Spokane","47.7478","-117.4197","5730","1339","polygon","FALSE","FALSE","America/Los_Angeles","3","99208 99218 99251","1840017334"
"Darrington","Darrington","WA","Washington","53061","Snohomish","53061","Snohomish","48.2546","-121.6029","1406","306","polygon","FALSE","TRUE","America/Los_Angeles","3","98241","1840021081"
"Metaline Falls","Metaline Falls","WA","Washington","53051","Pend Oreille","53051","Pend Oreille","48.8616","-117.3706","245","446","polygon","FALSE","TRUE","America/Los_Angeles","3","99153","1840022277"
"Lyle","Lyle","WA","Washington","53039","Klickitat","53039","Klickitat","45.6956","-121.2805","548","299","polygon","FALSE","FALSE","America/Los_Angeles","3","98635","1840017402"
"Cascade Valley","Cascade Valley","WA","Washington","53025","Grant","53025","Grant","47.1371","-119.3272","1797","232","polygon","FALSE","FALSE","America/Los_Angeles","3","98837","1840037865"
"Spangle","Spangle","WA","Washington","53063","Spokane","53063","Spokane","47.4299","-117.3812","307","339","polygon","FALSE","TRUE","America/Los_Angeles","3","99031","1840022290"
"Methow","Methow","WA","Washington","53047","Okanogan","53047","Okanogan","48.1289","-120.0056","78","44","polygon","FALSE","FALSE","America/Los_Angeles","3","98834","1840025237"
"Waterville","Waterville","WA","Washington","53017","Douglas","53017","Douglas","47.6480","-120.0707","1198","533","polygon","FALSE","TRUE","America/Los_Angeles","3","98858","1840022287"
"Lake Roesiger","Lake Roesiger","WA","Washington","53061","Snohomish","53061","Snohomish","47.9839","-121.9129","657","64","polygon","FALSE","FALSE","America/Los_Angeles","3","98290","1840037853"
"Milton","Milton","WA","Washington","53053","Pierce","53053|53033","Pierce|King","47.2522","-122.3154","8230","1185","polygon","FALSE","TRUE","America/Los_Angeles","3","98003 98354","1840019857"
"Krupp","Krupp","WA","Washington","53025","Grant","53025","Grant","47.4105","-118.9886","50","32","polygon","FALSE","TRUE","America/Los_Angeles","3","98832","1840074934"
"Alderton","Alderton","WA","Washington","53053","Pierce","53053","Pierce","47.1718","-122.2192","3303","240","polygon","FALSE","FALSE","America/Los_Angeles","3","98390 98372 98374","1840037523"
"DuPont","DuPont","WA","Washington","53053","Pierce","53053","Pierce","47.1079","-122.6496","9487","629","polygon","FALSE","TRUE","America/Los_Angeles","3","98327","1840018457"
"Edgewood","Edgewood","WA","Washington","53053","Pierce","53053","Pierce","47.2309","-122.2832","11213","515","polygon","FALSE","TRUE","America/Los_Angeles","3","98372 98371","1840019852"
"North Puyallup","North Puyallup","WA","Washington","53053","Pierce","53053","Pierce","47.2015","-122.2742","1848","684","polygon","FALSE","FALSE","America/Los_Angeles","3","98372","1840037690"
"Pacific Beach","Pacific Beach","WA","Washington","53027","Grays Harbor","53027","Grays Harbor","47.2150","-124.1967","538","171","polygon","FALSE","FALSE","America/Los_Angeles","3","98571","1840023817"
"Manson","Manson","WA","Washington","53007","Chelan","53007","Chelan","47.8858","-120.1563","1532","472","polygon","FALSE","FALSE","America/Los_Angeles","3","98831","1840025246"
"Brewster","Brewster","WA","Washington","53047","Okanogan","53047","Okanogan","48.1034","-119.7751","2343","785","polygon","FALSE","TRUE","America/Los_Angeles","3","98812","1840018359"
"Battle Ground","Battle Ground","WA","Washington","53011","Clark","53011","Clark","45.7764","-122.5413","20576","938","polygon","FALSE","TRUE","America/Los_Angeles","3","98604","1840018523"
"Shoreline","Shoreline","WA","Washington","53033","King","53033","King","47.7564","-122.3426","56189","1864","polygon","FALSE","TRUE","America/Los_Angeles","3","98155 98177 98133 98160","1840021118"
"Cosmopolis","Cosmopolis","WA","Washington","53027","Grays Harbor","53027","Grays Harbor","46.9541","-123.7725","1624","452","polygon","FALSE","TRUE","America/Los_Angeles","3","98520 98563 98537","1840018448"
"Airway Heights","Airway Heights","WA","Washington","53063","Spokane","53063","Spokane","47.6459","-117.5792","8166","524","polygon","FALSE","TRUE","America/Los_Angeles","3","99224 99001","1840018399"
"Grandview","Grandview","WA","Washington","53077","Yakima","53077","Yakima","46.2431","-119.9084","18858.0","670","polygon","FALSE","TRUE","America/Los_Angeles","3","98935 98930","1840019871"
"Inchelium","Inchelium","WA","Washington","53019","Ferry","53019","Ferry","48.3378","-118.2372","413","6","polygon","FALSE","FALSE","America/Los_Angeles","3","99138","1840017307"
"Grand Coulee","Grand Coulee","WA","Washington","53025","Grant","53025","Grant","47.9391","-119.0031","1042","330","polygon","FALSE","TRUE","America/Los_Angeles","3","99133","1840019815"
"Union","Union","WA","Washington","53045","Mason","53045","Mason","47.3475","-123.0952","272","64","polygon","FALSE","FALSE","America/Los_Angeles","3","98592","1840025253"
"Torboy","Torboy","WA","Washington","53019","Ferry","53019","Ferry","48.6772","-118.6689","48","19","polygon","FALSE","FALSE","America/Los_Angeles","3","99166","1840026090"
"Kelso","Kelso","WA","Washington","53015","Cowlitz","53015","Cowlitz","46.1248","-122.8909","12130","580","polygon","FALSE","TRUE","America/Los_Angeles","3","98626 98632","1840018503"
"Westport","Westport","WA","Washington","53027","Grays Harbor","53027","Grays Harbor","46.8919","-124.1120","2051","214","polygon","FALSE","TRUE","America/Los_Angeles","3","98595","1840021124"
"Junction City","Junction City","WA","Washington","53027","Grays Harbor","53027","Grays Harbor","46.9713","-123.7651","10","2","polygon","FALSE","FALSE","America/Los_Angeles","3","98520","1840017362"
"Lake Ketchum","Lake Ketchum","WA","Washington","53061","Snohomish","53061","Snohomish","48.2820","-122.3480","894","166","polygon","FALSE","FALSE","America/Los_Angeles","3","98292","1840037852"
"West Pasco","West Pasco","WA","Washington","53021","Franklin","53021","Franklin","46.2497","-119.1684","1233","280","polygon","FALSE","FALSE","America/Los_Angeles","3","99301","1840037891"
"Des Moines","Des Moines","WA","Washington","53033","King","53033","King","47.3914","-122.3154","31238","1875","polygon","FALSE","TRUE","America/Los_Angeles","3","98148 98198","1840018426"
"Davenport","Davenport","WA","Washington","53043","Lincoln","53043","Lincoln","47.6551","-118.1519","1708","395","polygon","FALSE","TRUE","America/Los_Angeles","3","99122","1840018404"
"Seattle","Seattle","WA","Washington","53033","King","53033","King","47.6211","-122.3244","3643765.0","3336","polygon","FALSE","TRUE","America/Los_Angeles","1","98109 98108 98104 98107 98106 98101 98103 98102 98105 98154 98122 98121 98126 98125 98178 98174 98177 98144 98146 98195 98199 98118 98119 98116 98117 98115 98112 98164 98134 98136 98133 98111 98113 98114 98124 98127 98129 98139 98141 98145 98161 98165 98170 98175 98181 98185 98191 98194","1840021117"
"Lake Stickney","Lake Stickney","WA","Washington","53061","Snohomish","53061","Snohomish","47.8709","-122.2596","9667","2441","polygon","FALSE","FALSE","America/Los_Angeles","2","98087 98204","1840037894"
"Carnation","Carnation","WA","Washington","53033","King","53033","King","47.6446","-121.9048","2164","725","polygon","FALSE","TRUE","America/Los_Angeles","3","98014","1840018421"
"Everett","Everett","WA","Washington","53061","Snohomish","53061","Snohomish","47.9524","-122.1670","110079","1278","polygon","FALSE","TRUE","America/Los_Angeles","2","98207 98204 98205 98203 98201 98208 98275 98206 98213","1840019785"
"Warden","Warden","WA","Washington","53025","Grant","53025","Grant","46.9674","-119.0522","2716.0","366","polygon","FALSE","TRUE","America/Los_Angeles","3","98857","1840021103"
"Palouse","Palouse","WA","Washington","53075","Whitman","53075","Whitman","46.9103","-117.0751","1055","388","polygon","FALSE","TRUE","America/Los_Angeles","3","99161","1840019863"
"Terrace Heights","Terrace Heights","WA","Washington","53077","Yakima","53077","Yakima","46.6024","-120.4482","7849","377","polygon","FALSE","FALSE","America/Los_Angeles","3","98901","1840018465"
"Clarkston","Clarkston","WA","Washington","53003","Asotin","53003","Asotin","46.4152","-117.0502","7396","1430","polygon","FALSE","TRUE","America/Los_Angeles","3","99403","1840018499"
"Elmer City","Elmer City","WA","Washington","53047","Okanogan","53047","Okanogan","48.0000","-118.9534","247","401","polygon","FALSE","TRUE","America/Los_Angeles","3","99124 99116","1840021058"
"Mossyrock","Mossyrock","WA","Washington","53041","Lewis","53041","Lewis","46.5305","-122.4887","789","444","polygon","FALSE","TRUE","America/Los_Angeles","3","98564","1840019883"
"Summit View","Summit View","WA","Washington","53053","Pierce","53053","Pierce","47.1343","-122.3468","7421","885","polygon","FALSE","TRUE","America/Los_Angeles","3","98375 98373","1840042106"
"Suquamish","Suquamish","WA","Washington","53035","Kitsap","53035","Kitsap","47.7238","-122.5830","4108","232","polygon","FALSE","FALSE","America/Los_Angeles","3","98392 98370","1840018411"
"Newcastle","Newcastle","WA","Washington","53033","King","53033","King","47.5303","-122.1633","11681","1014","polygon","FALSE","TRUE","America/Los_Angeles","3","98059 98056","1840019831"
"Stanwood","Stanwood","WA","Washington","53061","Snohomish","53061","Snohomish","48.2451","-122.3426","7161.0","937","polygon","FALSE","TRUE","America/Los_Angeles","3","98292","1840021079"
"Kapowsin","Kapowsin","WA","Washington","53053","Pierce","53053","Pierce","46.9727","-122.2272","391","36","polygon","FALSE","FALSE","America/Los_Angeles","3","98360 98338 98344","1840023832"
"Donald","Donald","WA","Washington","53077","Yakima","53077","Yakima","46.4737","-120.3923","0","0","polygon","FALSE","FALSE","America/Los_Angeles","3","98951","1840023853"
"Altoona","Altoona","WA","Washington","53069","Wahkiakum","53069","Wahkiakum","46.2699","-123.6145","61","4","polygon","FALSE","FALSE","America/Los_Angeles","3","98643","1840023875"
"South Prairie","South Prairie","WA","Washington","53053","Pierce","53053","Pierce","47.1373","-122.0940","443","441","polygon","FALSE","TRUE","America/Los_Angeles","3","98385","1840022308"
"Eschbach","Eschbach","WA","Washington","53077","Yakima","53077","Yakima","46.6670","-120.6337","377","123","polygon","FALSE","FALSE","America/Los_Angeles","3","98908","1840017369"
"Indianola","Indianola","WA","Washington","53035","Kitsap","53035","Kitsap","47.7566","-122.5142","3520","258","polygon","FALSE","FALSE","America/Los_Angeles","3","98342 98346 98370","1840017337"
"Reardan","Reardan","WA","Washington","53043","Lincoln","53043","Lincoln","47.6698","-117.8778","582","451","polygon","FALSE","TRUE","America/Los_Angeles","3","99029","1840021110"
"Cowiche","Cowiche","WA","Washington","53077","Yakima","53077","Yakima","46.6729","-120.7154","960","708","polygon","FALSE","FALSE","America/Los_Angeles","3","98923","1840023852"
"Sunday Lake","Sunday Lake","WA","Washington","53061","Snohomish","53061","Snohomish","48.2306","-122.2684","666","148","polygon","FALSE","TRUE","America/Los_Angeles","3","98292","1840042107"
"Rocky Point","Rocky Point","WA","Washington","53035","Kitsap","53035","Kitsap","47.5882","-122.6668","1449","790","polygon","FALSE","FALSE","America/Los_Angeles","3","98312","1840037507"
"Burbank","Burbank","WA","Washington","53071","Walla Walla","53071","Walla Walla","46.1991","-118.9728","3398","99","polygon","FALSE","FALSE","America/Los_Angeles","3","99323","1840017383"
"Lakeland North","Lakeland North","WA","Washington","53033","King","53033","King","47.3374","-122.2814","12487","1452","polygon","FALSE","TRUE","America/Los_Angeles","3","98001","1840074254"
"Granite Falls","Granite Falls","WA","Washington","53061","Snohomish","53061","Snohomish","48.0874","-121.9704","6565.0","632","polygon","FALSE","TRUE","America/Los_Angeles","3","98252","1840019787"
"Camas","Camas","WA","Washington","53011","Clark","53011","Clark","45.6003","-122.4306","23331","646","polygon","FALSE","TRUE","America/Los_Angeles","3","98607","1840018524"
"Skokomish","Skokomish","WA","Washington","53045","Mason","53045","Mason","47.3298","-123.1579","755","43","polygon","FALSE","FALSE","America/Los_Angeles","3","98584","1840018433"
"Cusick","Cusick","WA","Washington","53051","Pend Oreille","53051","Pend Oreille","48.3328","-117.2961","217","161","polygon","FALSE","TRUE","America/Los_Angeles","3","99119","1840021060"
"Rosalia","Rosalia","WA","Washington","53075","Whitman","53075","Whitman","47.2363","-117.3769","567","348","polygon","FALSE","TRUE","America/Los_Angeles","3","99170","1840021138"
"Longbranch","Longbranch","WA","Washington","53053","Pierce","53053","Pierce","47.2257","-122.7739","3236","62","polygon","FALSE","FALSE","America/Los_Angeles","3","98349 98351","1840023835"
"Granger","Granger","WA","Washington","53077","Yakima","53077","Yakima","46.3455","-120.1926","3542.0","841","polygon","FALSE","TRUE","America/Los_Angeles","3","98932","1840019872"
"North Fort Lewis","North Fort Lewis","WA","Washington","53053","Pierce","53053","Pierce","47.1221","-122.5966","5009","328","polygon","TRUE","TRUE","America/Los_Angeles","3","98433","1840042007"
"Tampico","Tampico","WA","Washington","53077","Yakima","53077","Yakima","46.5325","-120.8727","465","46","polygon","FALSE","FALSE","America/Los_Angeles","3","98903","1840023857"
"Tukwila","Tukwila","WA","Washington","53033","King","53033","King","47.4748","-122.2727","20144","847","polygon","FALSE","TRUE","America/Los_Angeles","3","98108 98178 98168 98188 98138 98190","1840021120"
"Cathlamet","Cathlamet","WA","Washington","53069","Wahkiakum","53069","Wahkiakum","46.2056","-123.3835","553","428","polygon","FALSE","TRUE","America/Los_Angeles","3","98612","1840022327"
"Wenatchee","Wenatchee","WA","Washington","53007","Chelan","53007","Chelan","47.4338","-120.3286","71512.0","1314","polygon","FALSE","TRUE","America/Los_Angeles","3","98801","1840021074"
"Port Ludlow","Port Ludlow","WA","Washington","53031","Jefferson","53031","Jefferson","47.9101","-122.7006","2642","88","polygon","FALSE","FALSE","America/Los_Angeles","3","98365","1840018388"
"Castle Rock","Castle Rock","WA","Washington","53015","Cowlitz","53015","Cowlitz","46.2717","-122.9057","2833.0","433","polygon","FALSE","TRUE","America/Los_Angeles","3","98611","1840018501"
"Glacier","Glacier","WA","Washington","53073","Whatcom","53073","Whatcom","48.8903","-121.9323","102","13","polygon","FALSE","FALSE","America/Los_Angeles","3","98244","1840017292"
"Index","Index","WA","Washington","53061","Snohomish","53061","Snohomish","47.8212","-121.5556","205","384","polygon","FALSE","TRUE","America/Los_Angeles","3","98256","1840021082"
"Republic","Republic","WA","Washington","53019","Ferry","53019","Ferry","48.6477","-118.7326","1062","274","polygon","FALSE","TRUE","America/Los_Angeles","3","99166","1840019766"
"Bellevue","Bellevue","WA","Washington","53033","King","53033","King","47.5953","-122.1550","144444","1666","polygon","FALSE","TRUE","America/Los_Angeles","2","98004 98005 98006 98007 98008 98009 98015","1840018417"
"Malo","Malo","WA","Washington","53019","Ferry","53019","Ferry","48.7997","-118.6119","72","236","polygon","FALSE","FALSE","America/Los_Angeles","3","99150","1840026093"
"Anderson Island","Anderson Island","WA","Washington","53053","Pierce","53053","Pierce","47.1577","-122.7037","1292","64","polygon","FALSE","TRUE","America/Los_Angeles","3","98303","1840041888"
"University Place","University Place","WA","Washington","53053","Pierce","53053","Pierce","47.2148","-122.5460","33401","1547","polygon","FALSE","TRUE","America/Los_Angeles","3","98466 98467 98464","1840021130"
"Montesano","Montesano","WA","Washington","53027","Grays Harbor","53027","Grays Harbor","47.0102","-123.5858","8494.0","147","polygon","FALSE","TRUE","America/Los_Angeles","3","98563","1840019847"
"Rainier","Rainier","WA","Washington","53067","Thurston","53067","Thurston","46.8917","-122.6867","2126","473","polygon","FALSE","TRUE","America/Los_Angeles","3","98576","1840021147"
"Fords Prairie","Fords Prairie","WA","Washington","53041","Lewis","53041","Lewis","46.7461","-123.0029","1812","188","polygon","FALSE","FALSE","America/Los_Angeles","3","98531","1840017377"
"Roy","Roy","WA","Washington","53053","Pierce","53053","Pierce","46.9971","-122.5423","820","652","polygon","FALSE","TRUE","America/Los_Angeles","3","98580","1840019856"
"Oso","Oso","WA","Washington","53061","Snohomish","53061","Snohomish","48.2836","-121.9237","212","29","polygon","FALSE","FALSE","America/Los_Angeles","3","98223","1840018374"
"Marblemount","Marblemount","WA","Washington","53057","Skagit","53057","Skagit","48.5378","-121.4346","0","0","polygon","FALSE","FALSE","America/Los_Angeles","3","98267","1840017315"
"Elk Plain","Elk Plain","WA","Washington","53053","Pierce","53053","Pierce","47.0448","-122.3671","14280","716","polygon","FALSE","FALSE","America/Los_Angeles","3","98387 98338","1840037546"
"Burlington","Burlington","WA","Washington","53057","Skagit","53057","Skagit","48.4677","-122.3298","8783","792","polygon","FALSE","TRUE","America/Los_Angeles","3","98233","1840018367"
"Bangor Base","Bangor Base","WA","Washington","53035","Kitsap","53035","Kitsap","47.7227","-122.7146","6358","221","polygon","TRUE","TRUE","America/Los_Angeles","3","98315","1840036750"
"Beaux Arts Village","Beaux Arts Village","WA","Washington","53033","King","53033","King","47.5854","-122.2009","326","1524","polygon","FALSE","TRUE","America/Los_Angeles","3","98004","1840019838"
"Port Gamble Tribal Community","Port Gamble Tribal Community","WA","Washington","53035","Kitsap","53035","Kitsap","47.8487","-122.5571","920","83","polygon","FALSE","TRUE","America/Los_Angeles","3","98346","1840042014"
"Olympia","Olympia","WA","Washington","53067","Thurston","53067","Thurston","47.0417","-122.8959","196078.0","1092","polygon","FALSE","TRUE","America/Los_Angeles","2","98501 98502 98506 98504 98507 98508 98511","1840019865"
"East Wenatchee","East Wenatchee","WA","Washington","53017","Douglas","53017","Douglas","47.4172","-120.2809","13983","1425","polygon","FALSE","TRUE","America/Los_Angeles","3","98802","1840019795"
"Addy","Addy","WA","Washington","53065","Stevens","53065","Stevens","48.3588","-117.8372","96","105","polygon","FALSE","FALSE","America/Los_Angeles","3","99101","1840025238"
"Minnehaha","Minnehaha","WA","Washington","53011","Clark","53011","Clark","45.6577","-122.6204","11767","2056","polygon","FALSE","FALSE","America/Los_Angeles","2","98661","1840018518"
"Bryn Mawr-Skyway","Bryn Mawr-Skyway","WA","Washington","53033","King","53033","King","47.4949","-122.2411","18365","2500","polygon","FALSE","TRUE","America/Los_Angeles","2","98178","1840037012"
"Satsop","Satsop","WA","Washington","53027","Grays Harbor","53027","Grays Harbor","47.0223","-123.4737","572","31","polygon","FALSE","FALSE","America/Los_Angeles","3","98583 98541","1840018445"
"Riverbend","Riverbend","WA","Washington","53033","King","53033","King","47.4651","-121.7491","2241","294","polygon","FALSE","FALSE","America/Los_Angeles","3","98045","1840037860"
"Easton","Easton","WA","Washington","53037","Kittitas","53037","Kittitas","47.2405","-121.1733","395","47","polygon","FALSE","FALSE","America/Los_Angeles","3","98925","1840017354"
"Silverdale","Silverdale","WA","Washington","53035","Kitsap","53035","Kitsap","47.6663","-122.6828","20664","631","polygon","FALSE","FALSE","America/Los_Angeles","3","98311 98370 98383","1840018406"
"Napavine","Napavine","WA","Washington","53041","Lewis","53041","Lewis","46.5844","-122.9007","1893","252","polygon","FALSE","TRUE","America/Los_Angeles","3","98565 98532","1840019884"
"Lochsloy","Lochsloy","WA","Washington","53061","Snohomish","53061","Snohomish","48.0597","-122.0411","3188","164","polygon","FALSE","FALSE","America/Los_Angeles","3","98258","1840037500"
"Ellensburg","Ellensburg","WA","Washington","53037","Kittitas","53037","Kittitas","46.9994","-120.5470","23471.0","1022","polygon","FALSE","TRUE","America/Los_Angeles","3","98926","1840019841"
"McKenna","McKenna","WA","Washington","53053","Pierce","53053","Pierce","46.9365","-122.5500","978","347","polygon","FALSE","FALSE","America/Los_Angeles","3","98580 98558","1840023836"
"Fairfield","Fairfield","WA","Washington","53063","Spokane","53063","Spokane","47.3848","-117.1748","616","387","polygon","FALSE","TRUE","America/Los_Angeles","3","99012","1840021096"
"Northwest Stanwood","Northwest Stanwood","WA","Washington","53061","Snohomish","53061","Snohomish","48.2623","-122.3501","144","77","polygon","FALSE","TRUE","America/Los_Angeles","3","98292","1840042009"
"Mansfield","Mansfield","WA","Washington","53017","Douglas","53017","Douglas","47.8119","-119.6380","339","401","polygon","FALSE","TRUE","America/Los_Angeles","3","98830","1840022286"
"Duvall","Duvall","WA","Washington","53033","King","53033","King","47.7354","-121.9725","7813","1230","polygon","FALSE","TRUE","America/Los_Angeles","3","98019","1840018427"
"Markham","Markham","WA","Washington","53027","Grays Harbor","53027","Grays Harbor","46.9155","-123.9814","238","82","polygon","FALSE","FALSE","America/Los_Angeles","3","98520","1840017359"
"Waller","Waller","WA","Washington","53053","Pierce","53053","Pierce","47.2035","-122.3699","8064","391","polygon","FALSE","FALSE","America/Los_Angeles","3","98404 98371 98443","1840037889"
"Longview","Longview","WA","Washington","53015","Cowlitz","53015","Cowlitz","46.1460","-122.9630","65619.0","976","polygon","FALSE","TRUE","America/Los_Angeles","3","98632","1840019904"
"Richland","Richland","WA","Washington","53005","Benton","53005","Benton","46.2826","-119.2937","56243","556","polygon","FALSE","TRUE","America/Los_Angeles","3","99352 99354","1840019889"
"Rosedale","Rosedale","WA","Washington","53053","Pierce","53053","Pierce","47.3453","-122.6368","4459","379","polygon","FALSE","FALSE","America/Los_Angeles","3","98332","1840023839"
"Vancouver","Vancouver","WA","Washington","53011","Clark","53011","Clark","45.6367","-122.5970","175673","1386","polygon","FALSE","TRUE","America/Los_Angeles","2","98684 98664 98665 98660 98661 98662 98663 98682 98683 98687","1840021189"
"Bethel","Bethel","WA","Washington","53035","Kitsap","53035","Kitsap","47.4874","-122.6175","3673","448","polygon","FALSE","FALSE","America/Los_Angeles","3","98367","1840023792"
"Custer","Custer","WA","Washington","53073","Whatcom","53073","Whatcom","48.9143","-122.6397","149","31","polygon","FALSE","FALSE","America/Los_Angeles","3","98248 98240","1840018344"
"Lofall","Lofall","WA","Washington","53035","Kitsap","53035","Kitsap","47.8113","-122.6564","2211","427","polygon","FALSE","FALSE","America/Los_Angeles","3","98370","1840023798"
"Fairwood","Fairwood","WA","Washington","53033","King","53033","King","47.4467","-122.1430","19531","1592","polygon","FALSE","FALSE","America/Los_Angeles","3","98058","1840037517"
"Winlock","Winlock","WA","Washington","53041","Lewis","53041","Lewis","46.4907","-122.9342","1354","405","polygon","FALSE","TRUE","America/Los_Angeles","3","98596","1840021164"
"Sumner","Sumner","WA","Washington","53053","Pierce","53053","Pierce","47.2190","-122.2338","10093","517","polygon","FALSE","TRUE","America/Los_Angeles","3","98390","1840021128"
"Cottage Lake","Cottage Lake","WA","Washington","53033","King","53033","King","47.7466","-122.0755","23941","406","polygon","FALSE","FALSE","America/Los_Angeles","3","98072 98077","1840037848"
"Puget Island","Puget Island","WA","Washington","53069","Wahkiakum","53069","Wahkiakum","46.1742","-123.3829","899","45","polygon","FALSE","TRUE","America/Los_Angeles","3","98612","1840042033"
"Woods Creek","Woods Creek","WA","Washington","53061","Snohomish","53061","Snohomish","47.8821","-121.8982","5826","160","polygon","FALSE","FALSE","America/Los_Angeles","3","98272","1840037864"
"Washougal","Washougal","WA","Washington","53011","Clark","53011","Clark","45.5812","-122.3433","15711","1108","polygon","FALSE","TRUE","America/Los_Angeles","3","98671","1840021190"
"Sisco Heights","Sisco Heights","WA","Washington","53061","Snohomish","53061","Snohomish","48.1188","-122.1076","2810","86","polygon","FALSE","FALSE","America/Los_Angeles","3","98223","1840037510"
"Canterwood","Canterwood","WA","Washington","53053","Pierce","53053","Pierce","47.3766","-122.6022","3220","576","polygon","FALSE","FALSE","America/Los_Angeles","3","98332","1840037842"
"Wapato","Wapato","WA","Washington","53077","Yakima","53077","Yakima","46.4434","-120.4215","7686.0","1646","polygon","FALSE","TRUE","America/Los_Angeles","3","98951","1840021153"
"Lower Elochoman","Lower Elochoman","WA","Washington","53069","Wahkiakum","53069","Wahkiakum","46.2185","-123.3698","160","40","polygon","FALSE","TRUE","America/Los_Angeles","3","98612","1840041981"
"Lake Goodwin","Lake Goodwin","WA","Washington","53061","Snohomish","53061","Snohomish","48.1387","-122.2804","3879","374","polygon","FALSE","FALSE","America/Los_Angeles","3","98223 98292 98271","1840037872"
"Banks Lake South","Banks Lake South","WA","Washington","53025","Grant","53025","Grant","47.6315","-119.2760","270","42","polygon","FALSE","TRUE","America/Los_Angeles","3","99115","1840034884"
"Kent","Kent","WA","Washington","53033","King","53033","King","47.3887","-122.2128","128458","1470","polygon","FALSE","TRUE","America/Los_Angeles","2","98031 98030 98032 98042 98035 98064 98089","1840018424"
"Bickleton","Bickleton","WA","Washington","53039","Klickitat","53039","Klickitat","46.0056","-120.3081","67","5","polygon","FALSE","FALSE","America/Los_Angeles","3","99322","1840017400"
"Ryderwood","Ryderwood","WA","Washington","53015","Cowlitz","53015","Cowlitz","46.3750","-123.0441","332","797","polygon","FALSE","FALSE","America/Los_Angeles","3","98581","1840025275"
"Cavalero","Cavalero","WA","Washington","53061","Snohomish","53061","Snohomish","47.9845","-122.0746","5284","1243","polygon","FALSE","TRUE","America/Los_Angeles","3","98258 98205","1840041913"
"La Conner","La Conner","WA","Washington","53057","Skagit","53057","Skagit","48.3925","-122.4945","3475.0","905","polygon","FALSE","TRUE","America/Los_Angeles","3","98257","1840021068"
"Martha Lake","Martha Lake","WA","Washington","53061","Snohomish","53061","Snohomish","47.8480","-122.2326","18566","1560","polygon","FALSE","FALSE","America/Los_Angeles","3","98087 98012 98208","1840037875"
"George","George","WA","Washington","53025","Grant","53025","Grant","47.0845","-119.8598","507","151","polygon","FALSE","TRUE","America/Los_Angeles","3","98848 98824","1840019814"
"Snohomish","Snohomish","WA","Washington","53061","Snohomish","53061","Snohomish","47.9277","-122.0970","10089","1119","polygon","FALSE","TRUE","America/Los_Angeles","3","98290 98291","1840021078"
"Eatonville","Eatonville","WA","Washington","53053","Pierce","53053","Pierce","46.8682","-122.2698","3038.0","633","polygon","FALSE","TRUE","America/Los_Angeles","3","98328","1840021131"
"Carson","Carson","WA","Washington","53059","Skamania","53059","Skamania","45.7353","-121.8219","2688","216","polygon","FALSE","FALSE","America/Los_Angeles","3","98610","1840017391"
"Almira","Almira","WA","Washington","53043","Lincoln","53043","Lincoln","47.7105","-118.9369","276","205","polygon","FALSE","TRUE","America/Los_Angeles","3","99103","1840021108"
"Nooksack","Nooksack","WA","Washington","53073","Whatcom","53073","Whatcom","48.9276","-122.3211","1560","852","polygon","FALSE","TRUE","America/Los_Angeles","3","98247 98276","1840019753"
"Mount Vista","Mount Vista","WA","Washington","53011","Clark","53011","Clark","45.7373","-122.6315","8525","628","polygon","FALSE","FALSE","America/Los_Angeles","3","98642 98686","1840037858"
"High Bridge","High Bridge","WA","Washington","53061","Snohomish","53061","Snohomish","47.7968","-122.0281","3028","167","polygon","FALSE","TRUE","America/Los_Angeles","3","98296 98272","1840041937"
"Lakeland South","Lakeland South","WA","Washington","53033","King","53033","King","47.2784","-122.2831","13982","1087","polygon","FALSE","TRUE","America/Los_Angeles","3","98001 98003","1840074270"
"Kenmore","Kenmore","WA","Washington","53033","King","53033","King","47.7532","-122.2459","22867","1438","polygon","FALSE","TRUE","America/Los_Angeles","3","98028","1840018423"
"Neah Bay","Neah Bay","WA","Washington","53009","Clallam","53009","Clallam","48.3612","-124.6115","994","163","polygon","FALSE","FALSE","America/Los_Angeles","3","98357","1840023937"
"Cliffdell","Cliffdell","WA","Washington","53077","Yakima","53077","Yakima","46.9213","-121.0420","80","17","polygon","FALSE","FALSE","America/Los_Angeles","3","98937","1840023851"
"Port Angeles East","Port Angeles East","WA","Washington","53009","Clallam","53009","Clallam","48.1041","-123.3695","3627","371","polygon","FALSE","TRUE","America/Los_Angeles","3","98362","1840074570"
"Burien","Burien","WA","Washington","53033","King","53033","King","47.4762","-122.3393","51671","1983","polygon","FALSE","TRUE","America/Los_Angeles","3","98146 98148 98168 98166 98062","1840018420"
"Taholah","Taholah","WA","Washington","53027","Grays Harbor","53027","Grays Harbor","47.3283","-124.2728","714","79","polygon","FALSE","FALSE","America/Los_Angeles","3","98587","1840018447"
"Wauna","Wauna","WA","Washington","53053","Pierce","53053","Pierce","47.3860","-122.6694","4412","268","polygon","FALSE","FALSE","America/Los_Angeles","3","98329","1840023842"
"Connell","Connell","WA","Washington","53021","Franklin","53021","Franklin","46.6624","-118.8405","5360.0","275","polygon","FALSE","TRUE","America/Los_Angeles","3","99326","1840018479"
"Disautel","Disautel","WA","Washington","53047","Okanogan","53047","Okanogan","48.3450","-119.2299","22","2","polygon","FALSE","FALSE","America/Los_Angeles","3","98841","1840023755"
"Santiago","Santiago","WA","Washington","53027","Grays Harbor","53027","Grays Harbor","47.2975","-124.2327","26","6","polygon","FALSE","TRUE","America/Los_Angeles","3","98587","1840042040"
"Orting","Orting","WA","Washington","53053","Pierce","53053","Pierce","47.0966","-122.2111","7983","1138","polygon","FALSE","TRUE","America/Los_Angeles","3","98360","1840019858"
"Colville","Colville","WA","Washington","53065","Stevens","53065","Stevens","48.5454","-117.8986","5064.0","596","polygon","FALSE","TRUE","America/Los_Angeles","3","99114","1840018361"
"Marysville","Marysville","WA","Washington","53061","Snohomish","53061","Snohomish","48.0810","-122.1558","166541.0","1289","polygon","FALSE","TRUE","America/Los_Angeles","2","98271 98270","1840019789"
"Walla Walla","Walla Walla","WA","Washington","53071","Walla Walla","53071","Walla Walla","46.0669","-118.3365","57779.0","938","polygon","FALSE","TRUE","America/Los_Angeles","3","99362","1840021174"
"Zillah","Zillah","WA","Washington","53077","Yakima","53077","Yakima","46.4083","-120.2717","3125","699","polygon","FALSE","TRUE","America/Los_Angeles","3","98953","1840021155"
"Curlew","Curlew","WA","Washington","53019","Ferry","53019","Ferry","48.8777","-118.6045","149","75","polygon","FALSE","FALSE","America/Los_Angeles","3","99118","1840025242"
"Key Center","Key Center","WA","Washington","53053","Pierce","53053","Pierce","47.3376","-122.7505","3810","100","polygon","FALSE","FALSE","America/Los_Angeles","3","98349 98329 98394 98395","1840023833"
"Hoodsport","Hoodsport","WA","Washington","53045","Mason","53045","Mason","47.4020","-123.1542","331","121","polygon","FALSE","FALSE","America/Los_Angeles","3","98548","1840025233"
"Spanaway","Spanaway","WA","Washington","53053","Pierce","53053","Pierce","47.0979","-122.4233","30528","1344","polygon","FALSE","FALSE","America/Los_Angeles","3","98387 98445","1840018451"
"Mattawa","Mattawa","WA","Washington","53025","Grant","53025","Grant","46.7364","-119.9019","5122.0","2388","polygon","FALSE","TRUE","America/Los_Angeles","2","99349","1840022292"
"Clallam Bay","Clallam Bay","WA","Washington","53009","Clallam","53009","Clallam","48.2536","-124.2579","366","249","polygon","FALSE","FALSE","America/Los_Angeles","3","98326","1840025247"
"Prairie Ridge","Prairie Ridge","WA","Washington","53053","Pierce","53053","Pierce","47.1443","-122.1408","12733","1202","polygon","FALSE","FALSE","America/Los_Angeles","3","98360 98391","1840037882"
"Rockport","Rockport","WA","Washington","53057","Skagit","53057","Skagit","48.4854","-121.6065","76","80","polygon","FALSE","FALSE","America/Los_Angeles","3","98283","1840018365"
"Stansberry Lake","Stansberry Lake","WA","Washington","53053","Pierce","53053","Pierce","47.3814","-122.7154","2747","510","polygon","FALSE","TRUE","America/Los_Angeles","3","98329","1840042090"
"Copalis Beach","Copalis Beach","WA","Washington","53027","Grays Harbor","53027","Grays Harbor","47.1205","-124.1722","559","58","polygon","FALSE","FALSE","America/Los_Angeles","3","98535 98536","1840017356"
"Frederickson","Frederickson","WA","Washington","53053","Pierce","53053","Pierce","47.0914","-122.3594","21737","725","polygon","FALSE","FALSE","America/Los_Angeles","3","98387 98375 98446","1840037551"
"Asotin","Asotin","WA","Washington","53003","Asotin","53003","Asotin","46.3371","-117.0433","1295","483","polygon","FALSE","TRUE","America/Los_Angeles","3","99402","1840018500"
"Mill Creek","Mill Creek","WA","Washington","53061","Snohomish","53061","Snohomish","47.8633","-122.2034","20832","1747","polygon","FALSE","TRUE","America/Los_Angeles","3","98012 98082","1840019790"
"Bell Hill","Bell Hill","WA","Washington","53009","Clallam","53009","Clallam","48.0550","-123.0870","875","127","polygon","FALSE","FALSE","America/Los_Angeles","3","98382","1840037847"
"Green Bluff","Green Bluff","WA","Washington","53063","Spokane","53063","Spokane","47.8190","-117.2770","544","27","polygon","FALSE","FALSE","America/Los_Angeles","3","99021 99005","1840023785"
"Clayton","Clayton","WA","Washington","53065","Stevens","53065","Stevens","48.0013","-117.5612","361","108","polygon","FALSE","FALSE","America/Los_Angeles","3","99110","1840025239"
"Puyallup","Puyallup","WA","Washington","53053","Pierce","53053","Pierce","47.1794","-122.2902","41001","1119","polygon","FALSE","TRUE","America/Los_Angeles","3","98372 98371 98374 98373 98352","1840019859"
"Hockinson","Hockinson","WA","Washington","53011","Clark","53011","Clark","45.7301","-122.4833","5267","147","polygon","FALSE","FALSE","America/Los_Angeles","3","98606","1840017399"
"Lake McMurray","Lake McMurray","WA","Washington","53057","Skagit","53057","Skagit","48.3129","-122.2317","134","63","polygon","FALSE","FALSE","America/Los_Angeles","3","98274","1840037893"
"Bucoda","Bucoda","WA","Washington","53067","Thurston","53067","Thurston","46.7968","-122.8680","583","401","polygon","FALSE","TRUE","America/Los_Angeles","3","98530","1840021143"
"Issaquah","Issaquah","WA","Washington","53033","King","53033","King","47.5420","-122.0444","37487","1192","polygon","FALSE","TRUE","America/Los_Angeles","3","98029 98027","1840018422"
"Odessa","Odessa","WA","Washington","53043","Lincoln","53043","Lincoln","47.3326","-118.6895","876","417","polygon","FALSE","TRUE","America/Los_Angeles","3","99159","1840022295"
"Hazel Dell","Hazel Dell","WA","Washington","53011","Clark","53011","Clark","45.6797","-122.6553","21449","1718","polygon","FALSE","FALSE","America/Los_Angeles","3","98665","1840037662"
"McMillin","McMillin","WA","Washington","53053","Pierce","53053","Pierce","47.1286","-122.2374","1673","390","polygon","FALSE","FALSE","America/Los_Angeles","3","98360 98374","1840023837"
"Wilbur","Wilbur","WA","Washington","53043","Lincoln","53043","Lincoln","47.7583","-118.7110","839","249","polygon","FALSE","TRUE","America/Los_Angeles","3","99185","1840022296"
"Skamokawa Valley","Skamokawa Valley","WA","Washington","53069","Wahkiakum","53069","Wahkiakum","46.3004","-123.4243","300","4","polygon","FALSE","TRUE","America/Los_Angeles","3","98647","1840042053"
"Centerville","Centerville","WA","Washington","53039","Klickitat","53039","Klickitat","45.7540","-120.9081","109","12","polygon","FALSE","FALSE","America/Los_Angeles","3","98613","1840017401"
"Nile","Nile","WA","Washington","53077","Yakima","53077","Yakima","46.8368","-120.9455","98","49","polygon","FALSE","FALSE","America/Los_Angeles","3","98937","1840023854"
"Spokane Valley","Spokane Valley","WA","Washington","53063","Spokane","53063","Spokane","47.6625","-117.2346","97847","1001","polygon","FALSE","TRUE","America/Los_Angeles","3","99206 99016 99212 99216 99037 99211 99213 99215","1840021094"
"Woodland","Woodland","WA","Washington","53015","Cowlitz","53015|53011","Cowlitz|Clark","45.9149","-122.7503","6531.0","575","polygon","FALSE","TRUE","America/Los_Angeles","3","98674","1840021181"
"Lewisville","Lewisville","WA","Washington","53011","Clark","53011","Clark","45.8127","-122.5144","1503","107","polygon","FALSE","FALSE","America/Los_Angeles","3","98604","1840037855"
"Vantage","Vantage","WA","Washington","53037","Kittitas","53037","Kittitas","46.9453","-119.9923","18","21","polygon","FALSE","FALSE","America/Los_Angeles","3","98950","1840018441"
"Gorst","Gorst","WA","Washington","53035","Kitsap","53035","Kitsap","47.5237","-122.7057","257","160","polygon","FALSE","FALSE","America/Los_Angeles","3","98312 98367","1840023795"
"Lake Morton-Berrydale","Lake Morton-Berrydale","WA","Washington","53033","King","53033","King","47.3325","-122.1030","11201","351","polygon","FALSE","TRUE","America/Los_Angeles","3","98092 98042","1840074253"
"Ione","Ione","WA","Washington","53051","Pend Oreille","53051","Pend Oreille","48.7402","-117.4223","459","330","polygon","FALSE","TRUE","America/Los_Angeles","3","99139","1840021061"
"Bothell West","Bothell West","WA","Washington","53061","Snohomish","53061","Snohomish","47.8056","-122.2400","20472","1918","polygon","FALSE","TRUE","America/Los_Angeles","3","98021 98036 98012","1840041906"
"Vaughn","Vaughn","WA","Washington","53053","Pierce","53053","Pierce","47.3550","-122.7773","342","57","polygon","FALSE","FALSE","America/Los_Angeles","3","98329 98394","1840023841"
"Black Diamond","Black Diamond","WA","Washington","53033","King","53033","King","47.3130","-122.0181","4436","262","polygon","FALSE","TRUE","America/Los_Angeles","3","98010","1840018418"
"Ferndale","Ferndale","WA","Washington","53073","Whatcom","53073","Whatcom","48.8525","-122.5893","14026","775","polygon","FALSE","TRUE","America/Los_Angeles","3","98248","1840019751"
"Acme","Acme","WA","Washington","53073","Whatcom","53073","Whatcom","48.7146","-122.2293","183","11","polygon","FALSE","FALSE","America/Los_Angeles","3","98220","1840017288"
"White Center","White Center","WA","Washington","53033","King","53033","King","47.5086","-122.3480","15300","2614","polygon","FALSE","FALSE","America/Los_Angeles","2","98106 98146 98168","1840037727"
"Fairchild AFB","Fairchild AFB","WA","Washington","53063","Spokane","53063","Spokane","47.6187","-117.6485","2960","172","polygon","TRUE","TRUE","America/Los_Angeles","3","99011","1840073916"
"Pacific","Pacific","WA","Washington","53033","King","53033|53053","King|Pierce","47.2611","-122.2507","7184","1149","polygon","FALSE","TRUE","America/Los_Angeles","3","98001 98047","1840019834"
"Glenwood","Glenwood","WA","Washington","53039","Klickitat","53039","Klickitat","46.0228","-121.2926","157","64","polygon","FALSE","FALSE","America/Los_Angeles","3","98619","1840037769"
"Colfax","Colfax","WA","Washington","53075","Whitman","53075","Whitman","46.9032","-117.3394","2811.0","299","polygon","FALSE","TRUE","America/Los_Angeles","3","99111","1840018458"
"Silvana","Silvana","WA","Washington","53061","Snohomish","53061","Snohomish","48.2018","-122.2459","0","0","polygon","FALSE","FALSE","America/Los_Angeles","3","98292","1840018373"
"Forks","Forks","WA","Washington","53009","Clallam","53009","Clallam","47.9526","-124.3904","4274.0","359","polygon","FALSE","TRUE","America/Los_Angeles","3","98331","1840019781"
"Kirkland","Kirkland","WA","Washington","53033","King","53033","King","47.6997","-122.2041","88630","1921","polygon","FALSE","TRUE","America/Los_Angeles","3","98034 98033 98011 98083","1840019836"
"Okanogan","Okanogan","WA","Washington","53047","Okanogan","53047","Okanogan","48.3671","-119.5784","2571","493","polygon","FALSE","TRUE","America/Los_Angeles","3","98840","1840019760"
"Kayak Point","Kayak Point","WA","Washington","53061","Snohomish","53061","Snohomish","48.1387","-122.3342","1693","119","polygon","FALSE","TRUE","America/Los_Angeles","3","98292","1840041938"
"Union Hill-Novelty Hill","Union Hill-Novelty Hill","WA","Washington","53033","King","53033","King","47.6788","-122.0284","22109","352","polygon","FALSE","TRUE","America/Los_Angeles","3","98053 98077","1840074663"
"Outlook","Outlook","WA","Washington","53077","Yakima","53077","Yakima","46.3311","-120.0923","300","893","polygon","FALSE","FALSE","America/Los_Angeles","3","98938","1840023855"
"Lake Tapps","Lake Tapps","WA","Washington","53053","Pierce","53053","Pierce","47.2305","-122.1696","13091","409","polygon","FALSE","TRUE","America/Los_Angeles","3","98391","1840041971"
"Cohassett Beach","Cohassett Beach","WA","Washington","53027","Grays Harbor","53027","Grays Harbor","46.8656","-124.1054","712","211","polygon","FALSE","FALSE","America/Los_Angeles","3","98595","1840017355"
"Tonasket","Tonasket","WA","Washington","53047","Okanogan","53047","Okanogan","48.7077","-119.4412","1126","459","polygon","FALSE","TRUE","America/Los_Angeles","3","98855","1840021057"
"Sunnyside","Sunnyside","WA","Washington","53077","Yakima","53077","Yakima","46.3159","-120.0058","17927.0","843","polygon","FALSE","TRUE","America/Los_Angeles","3","98944","1840021150"
"Lakeview","Lakeview","WA","Washington","53025","Grant","53025","Grant","47.3755","-119.5043","881","301","polygon","FALSE","FALSE","America/Los_Angeles","3","98851","1840136062"
"Carbonado","Carbonado","WA","Washington","53053","Pierce","53053","Pierce","47.0805","-122.0536","701","649","polygon","FALSE","TRUE","America/Los_Angeles","3","98323 98396","1840022307"
"Pullman","Pullman","WA","Washington","53075","Whitman","53075","Whitman","46.7340","-117.1669","33276.0","1206","polygon","FALSE","TRUE","America/Los_Angeles","3","99164 99163","1840019864"
"Blyn","Blyn","WA","Washington","53009","Clallam","53009","Clallam","48.0130","-122.9897","22","1","polygon","FALSE","FALSE","America/Los_Angeles","3","98382","1840017318"
"Brinnon","Brinnon","WA","Washington","53031","Jefferson","53031","Jefferson","47.6689","-122.9249","703","28","polygon","FALSE","FALSE","America/Los_Angeles","3","98320","1840017329"
"Friday Harbor","Friday Harbor","WA","Washington","53055","San Juan","53055","San Juan","48.5324","-123.0655","2407","430","polygon","FALSE","TRUE","America/Los_Angeles","3","98250","1840021065"
"Orchards","Orchards","WA","Washington","53011","Clark","53011","Clark","45.6888","-122.5305","21299","1521","polygon","FALSE","FALSE","America/Los_Angeles","3","98682","1840018519"
"Purdy","Purdy","WA","Washington","53053","Pierce","53053","Pierce","47.3938","-122.6114","1087","178","polygon","FALSE","FALSE","America/Los_Angeles","3","98332","1840023838"
"Tekoa","Tekoa","WA","Washington","53075","Whitman","53075","Whitman","47.2247","-117.0732","809","254","polygon","FALSE","TRUE","America/Los_Angeles","3","99033","1840021135"
"Tanner","Tanner","WA","Washington","53033","King","53033","King","47.4813","-121.6921","905","91","polygon","FALSE","FALSE","America/Los_Angeles","3","98045","1840037824"
"Thorp","Thorp","WA","Washington","53037","Kittitas","53037","Kittitas","47.0656","-120.6709","297","93","polygon","FALSE","FALSE","America/Los_Angeles","3","98946","1840018439"
"Artondale","Artondale","WA","Washington","53053","Pierce","53053","Pierce","47.3024","-122.6390","12937","372","polygon","FALSE","FALSE","America/Los_Angeles","3","98335","1840037617"
"Liberty Lake","Liberty Lake","WA","Washington","53063","Spokane","53063","Spokane","47.6687","-117.1032","9893","621","polygon","FALSE","TRUE","America/Los_Angeles","3","99019 99016","1840037678"
"Cheney","Cheney","WA","Washington","53063","Spokane","53063","Spokane","47.4901","-117.5789","12421.0","1106","polygon","FALSE","TRUE","America/Los_Angeles","3","99004","1840018398"
"Sammamish","Sammamish","WA","Washington","53033","King","53033","King","47.6019","-122.0419","64548","1219","polygon","FALSE","TRUE","America/Los_Angeles","3","98029 98075 98074","1840021115"
"Cle Elum","Cle Elum","WA","Washington","53037","Kittitas","53037","Kittitas","47.1946","-120.9553","3768.0","179","polygon","FALSE","TRUE","America/Los_Angeles","3","98943 98922","1840018440"
"Fern Prairie","Fern Prairie","WA","Washington","53011","Clark","53011","Clark","45.6370","-122.3963","2611","200","polygon","FALSE","FALSE","America/Los_Angeles","3","98607","1840023890"
"Waverly","Waverly","WA","Washington","53063","Spokane","53063","Spokane","47.3380","-117.2312","108","101","polygon","FALSE","TRUE","America/Los_Angeles","3","99012 99039","1840022291"
"Lakewood","Lakewood","WA","Washington","53053","Pierce","53053","Pierce","47.1628","-122.5299","60296","1362","polygon","FALSE","TRUE","America/Los_Angeles","3","98499 98498 98496 98497","1840019860"
"Lake Marcel-Stillwater","Lake Marcel-Stillwater","WA","Washington","53033","King","53033","King","47.6926","-121.9152","1220","368","polygon","FALSE","TRUE","America/Los_Angeles","3","98014","1840074241"
"Central Park","Central Park","WA","Washington","53027","Grays Harbor","53027","Grays Harbor","46.9705","-123.7018","2741","300","polygon","FALSE","FALSE","America/Los_Angeles","3","98520","1840017358"
"Bridgeport","Bridgeport","WA","Washington","53017","Douglas","53017","Douglas","48.0063","-119.6737","2555","961","polygon","FALSE","TRUE","America/Los_Angeles","3","98813","1840018387"
"Raft Island","Raft Island","WA","Washington","53053","Pierce","53053","Pierce","47.3293","-122.6686","341","475","polygon","FALSE","TRUE","America/Los_Angeles","3","98335","1840042039"
"Larch Way","Larch Way","WA","Washington","53061","Snohomish","53061","Snohomish","47.8429","-122.2527","4117","1428","polygon","FALSE","TRUE","America/Los_Angeles","3","98087 98037","1840041976"
"Lake Bosworth","Lake Bosworth","WA","Washington","53061","Snohomish","53061","Snohomish","48.0532","-121.9812","654","74","polygon","FALSE","FALSE","America/Los_Angeles","3","98290 98252","1840037850"
"Barberton","Barberton","WA","Washington","53011","Clark","53011","Clark","45.7136","-122.6114","6719","600","polygon","FALSE","FALSE","America/Los_Angeles","3","98662 98686 98666 98668","1840017397"
"Sekiu","Sekiu","WA","Washington","53009","Clallam","53009","Clallam","48.2637","-124.3012","50","150","polygon","FALSE","FALSE","America/Los_Angeles","3","98381","1840025248"
"Brier","Brier","WA","Washington","53061","Snohomish","53061","Snohomish","47.7922","-122.2734","6884","1206","polygon","FALSE","TRUE","America/Los_Angeles","3","98036","1840018379"
"Spokane","Spokane","WA","Washington","53063","Spokane","53063","Spokane","47.6671","-117.4330","403043.0","1218","polygon","FALSE","TRUE","America/Los_Angeles","2","99201 99203 99202 99205 99204 99207 99208 99224 99223 99001 99212 99209 99210 99219 99220 99252 99256 99258 99260","1840021093"
"Fall City","Fall City","WA","Washington","53033","King","53033","King","47.5717","-121.9134","1903","258","polygon","FALSE","FALSE","America/Los_Angeles","3","98024","1840017342"
"Pasco","Pasco","WA","Washington","53021","Franklin","53021","Franklin","46.2506","-119.1303","73013","832","polygon","FALSE","TRUE","America/Los_Angeles","3","99301 99302","1840019888"
"Lyman","Lyman","WA","Washington","53057","Skagit","53057","Skagit","48.5230","-122.0634","468","269","polygon","FALSE","TRUE","America/Los_Angeles","3","98263 98284","1840021069"
"Oakville","Oakville","WA","Washington","53027","Grays Harbor","53027","Grays Harbor","46.8403","-123.2333","684","498","polygon","FALSE","TRUE","America/Los_Angeles","3","98568","1840019848"
"Dash Point","Dash Point","WA","Washington","53053","Pierce","53053","Pierce","47.3131","-122.4153","1007","613","polygon","FALSE","FALSE","America/Los_Angeles","3","98422","1840037637"
"Herron Island","Herron Island","WA","Washington","53053","Pierce","53053","Pierce","47.2645","-122.8348","69","55","polygon","FALSE","TRUE","America/Los_Angeles","3","98349","1840041931"
"West Clarkston-Highland","West Clarkston-Highland","WA","Washington","53003","Asotin","53003","Asotin","46.4023","-117.0630","5895","816","polygon","FALSE","TRUE","America/Los_Angeles","3","99403","1840074702"
"Royal City","Royal City","WA","Washington","53025","Grant","53025","Grant","46.9000","-119.6142","2205","639","polygon","FALSE","TRUE","America/Los_Angeles","3","99357","1840019816"
"Venersborg","Venersborg","WA","Washington","53011","Clark","53011","Clark","45.7860","-122.4721","4196","149","polygon","FALSE","FALSE","America/Los_Angeles","3","98604","1840018521"
"Hoquiam","Hoquiam","WA","Washington","53027","Grays Harbor","53027","Grays Harbor","46.9863","-123.9023","8500","344","polygon","FALSE","TRUE","America/Los_Angeles","3","98550","1840019845"
"Willapa","Willapa","WA","Washington","53049","Pacific","53049","Pacific","46.6755","-123.6648","204","283","polygon","FALSE","FALSE","America/Los_Angeles","3","98577","1840025262"
"Quilcene","Quilcene","WA","Washington","53031","Jefferson","53031","Jefferson","47.8369","-122.9058","432","18","polygon","FALSE","FALSE","America/Los_Angeles","3","98376","1840018389"
"Freeland","Freeland","WA","Washington","53029","Island","53029","Island","48.0185","-122.5358","1698","168","polygon","FALSE","FALSE","America/Los_Angeles","3","98249","1840017317"
"McCleary","McCleary","WA","Washington","53027","Grays Harbor","53027","Grays Harbor","47.0584","-123.2723","1691","318","polygon","FALSE","TRUE","America/Los_Angeles","3","98557","1840019846"
"Roosevelt","Roosevelt","WA","Washington","53039","Klickitat","53039","Klickitat","45.7476","-120.2161","107","10","polygon","FALSE","FALSE","America/Los_Angeles","3","99356","1840136623"
"Long Beach","Long Beach","WA","Washington","53049","Pacific","53049","Pacific","46.3559","-124.0556","1413","395","polygon","FALSE","TRUE","America/Los_Angeles","3","98631","1840019880"
"Trout Lake","Trout Lake","WA","Washington","53039","Klickitat","53039","Klickitat","45.9976","-121.5291","654","36","polygon","FALSE","FALSE","America/Los_Angeles","3","98650","1840024000"
"Coulee Dam","Coulee Dam","WA","Washington","53047","Okanogan","53047|53025|53017","Okanogan|Grant|Douglas","47.9688","-118.9761","1079","576","polygon","FALSE","TRUE","America/Los_Angeles","3","99116","1840022270"
"Swede Heaven","Swede Heaven","WA","Washington","53061","Snohomish","53061","Snohomish","48.2829","-121.7136","1030","55","polygon","FALSE","FALSE","America/Los_Angeles","3","98223","1840037821"
"Pine Grove","Pine Grove","WA","Washington","53019","Ferry","53019","Ferry","48.6502","-118.6834","111","87","polygon","FALSE","TRUE","America/Los_Angeles","3","99166","1840043279"
"Langley","Langley","WA","Washington","53029","Island","53029","Island","48.0337","-122.4084","1124","430","polygon","FALSE","TRUE","America/Los_Angeles","3","98260","1840019780"
"Sedro-Woolley","Sedro-Woolley","WA","Washington","53057","Skagit","53057","Skagit","48.5113","-122.2321","11838","1057","polygon","FALSE","TRUE","America/Los_Angeles","3","98284","1840021066"
"Hatton","Hatton","WA","Washington","53001","Adams","53001","Adams","46.7735","-118.8277","101","104","polygon","FALSE","TRUE","America/Los_Angeles","3","99344","1840021133"
"Entiat","Entiat","WA","Washington","53007","Chelan","53007","Chelan","47.6780","-120.2175","1223","216","polygon","FALSE","TRUE","America/Los_Angeles","3","98822","1840019777"
"Bainbridge Island","Bainbridge Island","WA","Washington","53035","Kitsap","53035","Kitsap","47.6439","-122.5434","24522","342","polygon","FALSE","TRUE","America/Los_Angeles","3","98110 98061","1840018409"
"Auburn","Auburn","WA","Washington","53033","King","53033|53053","King|Pierce","47.3041","-122.2110","80776","1057","polygon","FALSE","TRUE","America/Los_Angeles","3","98001 98002 98092","1840018416"
"Ocean City","Ocean City","WA","Washington","53027","Grays Harbor","53027","Grays Harbor","47.0763","-124.1620","168","19","polygon","FALSE","FALSE","America/Los_Angeles","3","98569","1840018444"
"White Swan","White Swan","WA","Washington","53077","Yakima","53077","Yakima","46.3769","-120.7382","973","140","polygon","FALSE","FALSE","America/Los_Angeles","3","98952","1840018464"
"Felida","Felida","WA","Washington","53011","Clark","53011","Clark","45.7138","-122.7103","8065","1077","polygon","FALSE","FALSE","America/Los_Angeles","3","98685","1840037495"
"Lacey","Lacey","WA","Washington","53067","Thurston","53067","Thurston","47.0458","-122.7934","49748","1132","polygon","FALSE","TRUE","America/Los_Angeles","3","98503 98516 98509","1840019866"
"Gold Bar","Gold Bar","WA","Washington","53061","Snohomish","53061","Snohomish","47.8566","-121.6927","2301","824","polygon","FALSE","TRUE","America/Los_Angeles","3","98251","1840019786"
"Clyde Hill","Clyde Hill","WA","Washington","53033","King","53033","King","47.6303","-122.2180","3318","1213","polygon","FALSE","TRUE","America/Los_Angeles","3","98004","1840018413"
"Upper Elochoman","Upper Elochoman","WA","Washington","53069","Wahkiakum","53069","Wahkiakum","46.2403","-123.3247","70","18","polygon","FALSE","TRUE","America/Los_Angeles","3","98612","1840042136"
"Marcus","Marcus","WA","Washington","53065","Stevens","53065","Stevens","48.6642","-118.0601","183","316","polygon","FALSE","TRUE","America/Los_Angeles","3","99126 99151","1840022273"
"Canyon Creek","Canyon Creek","WA","Washington","53061","Snohomish","53061","Snohomish","48.1157","-121.9831","3319","209","polygon","FALSE","TRUE","America/Los_Angeles","3","98223 98252","1840074181"
"Malone","Malone","WA","Washington","53027","Grays Harbor","53027","Grays Harbor","46.9779","-123.3035","543","23","polygon","FALSE","FALSE","America/Los_Angeles","3","98559 98541","1840026097"
"Bothell East","Bothell East","WA","Washington","53061","Snohomish","53061","Snohomish","47.8064","-122.1844","10424","1931","polygon","FALSE","TRUE","America/Los_Angeles","3","98021 98012","1840041892"
"Yarrow Point","Yarrow Point","WA","Washington","53033","King","53033","King","47.6452","-122.2179","1126","1190","polygon","FALSE","TRUE","America/Los_Angeles","3","98004","1840022300"
"Steptoe","Steptoe","WA","Washington","53075","Whitman","53075","Whitman","47.0075","-117.3502","183","31","polygon","FALSE","FALSE","America/Los_Angeles","3","99111 99174","1840025258"
"West Richland","West Richland","WA","Washington","53005","Benton","53005","Benton","46.3115","-119.3997","14596","254","polygon","FALSE","TRUE","America/Los_Angeles","3","99320 99353","1840021168"
"Orient","Orient","WA","Washington","53019","Ferry","53019","Ferry","48.8637","-118.2059","132","117","polygon","FALSE","FALSE","America/Los_Angeles","3","99160","1840025243"
"Federal Way","Federal Way","WA","Washington","53033","King","53033","King","47.3090","-122.3359","96690","1679","polygon","FALSE","TRUE","America/Los_Angeles","3","98023 98003 98063 98093","1840019826"
"Pe Ell","Pe Ell","WA","Washington","53041","Lewis","53041","Lewis","46.5712","-123.2982","653","426","polygon","FALSE","TRUE","America/Los_Angeles","3","98572 98522","1840022321"
"Deep River","Deep River","WA","Washington","53069","Wahkiakum","53069","Wahkiakum","46.3521","-123.6984","151","4","polygon","FALSE","FALSE","America/Los_Angeles","3","98638","1840023929"
"Bothell","Bothell","WA","Washington","53033","King","53033|53061","King|Snohomish","47.7736","-122.2044","45533","1287","polygon","FALSE","TRUE","America/Los_Angeles","3","98021 98011 98041","1840018419"
"South Wenatchee","South Wenatchee","WA","Washington","53007","Chelan","53007","Chelan","47.3886","-120.2829","2057","683","polygon","FALSE","TRUE","America/Los_Angeles","3","98801","1840037106"
"Snoqualmie Pass","Snoqualmie Pass","WA","Washington","53037","Kittitas","53037","Kittitas","47.4014","-121.4109","235","31","polygon","FALSE","FALSE","America/Los_Angeles","3","98068","1840037862"
"Hartline","Hartline","WA","Washington","53025","Grant","53025","Grant","47.6895","-119.1081","154","178","polygon","FALSE","TRUE","America/Los_Angeles","3","99135","1840021105"
"Lake Forest Park","Lake Forest Park","WA","Washington","53033","King","53033","King","47.7597","-122.2878","13392","1469","polygon","FALSE","TRUE","America/Los_Angeles","3","98155","1840019837"
"Crocker","Crocker","WA","Washington","53053","Pierce","53053","Pierce","47.0843","-122.1225","1332","71","polygon","FALSE","TRUE","America/Los_Angeles","3","98360","1840041924"
"Elbe","Elbe","WA","Washington","53053","Pierce","53053","Pierce","46.7653","-122.1946","53","356","polygon","FALSE","FALSE","America/Los_Angeles","3","98330","1840017364"
"Ravensdale","Ravensdale","WA","Washington","53033","King","53033","King","47.3563","-121.9692","1579","136","polygon","FALSE","FALSE","America/Los_Angeles","3","98051 98038","1840018412"
"Arlington","Arlington","WA","Washington","53061","Snohomish","53061","Snohomish","48.1697","-122.1446","19212","756","polygon","FALSE","TRUE","America/Los_Angeles","3","98223","1840018378"
"McChord AFB","McChord AFB","WA","Washington","53053","Pierce","53053","Pierce","47.1328","-122.4924","3337","216","polygon","TRUE","TRUE","America/Los_Angeles","3","98439 98438","1840073929"
"Lebam","Lebam","WA","Washington","53049","Pacific","53049","Pacific","46.5641","-123.5509","101","26","polygon","FALSE","FALSE","America/Los_Angeles","3","98577 98554","1840017376"
"Lynden","Lynden","WA","Washington","53073","Whatcom","53073","Whatcom","48.9503","-122.4544","17340.0","1019","polygon","FALSE","TRUE","America/Los_Angeles","3","98264","1840019752"
"Coupeville","Coupeville","WA","Washington","53029","Island","53029","Island","48.2172","-122.6775","1928","586","polygon","FALSE","TRUE","America/Los_Angeles","3","98239","1840021075"
"Prescott","Prescott","WA","Washington","53071","Walla Walla","53071","Walla Walla","46.2988","-118.3126","304","292","polygon","FALSE","TRUE","America/Los_Angeles","3","99348","1840021175"
"South Bend","South Bend","WA","Washington","53049","Pacific","53049","Pacific","46.6680","-123.8008","1651","394","polygon","FALSE","TRUE","America/Los_Angeles","3","98586 98577","1840021161"
"Mabton","Mabton","WA","Washington","53077","Yakima","53077","Yakima","46.2115","-119.9938","2532.0","1064","polygon","FALSE","TRUE","America/Los_Angeles","3","98935","1840019873"
"North Bend","North Bend","WA","Washington","53033","King","53033","King","47.4898","-121.7738","6821","598","polygon","FALSE","TRUE","America/Los_Angeles","3","98045","1840019833"
"Grapeview","Grapeview","WA","Washington","53045","Mason","53045","Mason","47.3316","-122.8413","982","103","polygon","FALSE","FALSE","America/Los_Angeles","3","98524 98546","1840037554"
"Garfield","Garfield","WA","Washington","53075","Whitman","53075","Whitman","47.0103","-117.1395","614","252","polygon","FALSE","TRUE","America/Los_Angeles","3","99130","1840021141"
"Rochester","Rochester","WA","Washington","53067","Thurston","53067","Thurston","46.8288","-123.0722","2923","484","polygon","FALSE","FALSE","America/Los_Angeles","3","98579","1840018459"
"Dayton","Dayton","WA","Washington","53013","Columbia","53013","Columbia","46.3168","-117.9769","2637.0","658","polygon","FALSE","TRUE","America/Los_Angeles","3","99328","1840018486"
"Algona","Algona","WA","Washington","53033","King","53033","King","47.2822","-122.2504","3185","933","polygon","FALSE","TRUE","America/Los_Angeles","3","98001 98047","1840018415"
"Mineral","Mineral","WA","Washington","53041","Lewis","53041","Lewis","46.7193","-122.1859","193","111","polygon","FALSE","FALSE","America/Los_Angeles","3","98355","1840025263"
"Barstow","Barstow","WA","Washington","53019","Ferry","53019","Ferry","48.7783","-118.1329","119","82","polygon","FALSE","FALSE","America/Los_Angeles","3","99141","1840026089"
"Moclips","Moclips","WA","Washington","53027","Grays Harbor","53027","Grays Harbor","47.2348","-124.2025","0","0","polygon","FALSE","FALSE","America/Los_Angeles","3","98571 98562","1840018442"
"Bellingham","Bellingham","WA","Washington","53073","Whatcom","53073","Whatcom","48.7543","-122.4687","126015.0","1241","polygon","FALSE","TRUE","America/Los_Angeles","2","98229 98225 98226 98228","1840018346"
"Vader","Vader","WA","Washington","53041","Lewis","53041","Lewis","46.4045","-122.9569","643","266","polygon","FALSE","TRUE","America/Los_Angeles","3","98593","1840021163"
"North Lynnwood","North Lynnwood","WA","Washington","53061","Snohomish","53061","Snohomish","47.8533","-122.2762","20626","2549","polygon","FALSE","FALSE","America/Los_Angeles","2","98087 98037","1840037895"
"Tracyton","Tracyton","WA","Washington","53035","Kitsap","53035","Kitsap","47.6095","-122.6533","5937","1195","polygon","FALSE","FALSE","America/Los_Angeles","3","98311 98310 98393","1840018408"
"White Salmon","White Salmon","WA","Washington","53039","Klickitat","53039","Klickitat","45.7282","-121.4853","2552","657","polygon","FALSE","TRUE","America/Los_Angeles","3","98672","1840021191"
"Peaceful Valley","Peaceful Valley","WA","Washington","53073","Whatcom","53073","Whatcom","48.9477","-122.1406","4196","95","polygon","FALSE","FALSE","America/Los_Angeles","3","98295 98244 98266","1840037896"
"East Renton Highlands","East Renton Highlands","WA","Washington","53033","King","53033","King","47.4718","-122.0854","11401","393","polygon","FALSE","FALSE","America/Los_Angeles","3","98027 98059 98038","1840037866"
"Metaline","Metaline","WA","Washington","53051","Pend Oreille","53051","Pend Oreille","48.8540","-117.3899","178","227","polygon","FALSE","TRUE","America/Los_Angeles","3","99152","1840022276"
"Deming","Deming","WA","Washington","53073","Whatcom","53073","Whatcom","48.8381","-122.2313","240","17","polygon","FALSE","FALSE","America/Los_Angeles","3","98247 98244","1840018345"
"Medical Lake","Medical Lake","WA","Washington","53063","Spokane","53063","Spokane","47.5712","-117.6893","4818.0","567","polygon","FALSE","TRUE","America/Los_Angeles","3","99022","1840019804"
"Aberdeen","Aberdeen","WA","Washington","53027","Grays Harbor","53027","Grays Harbor","46.9757","-123.8095","29089.0","585","polygon","FALSE","TRUE","America/Los_Angeles","3","98520","1840018446"
"Chehalis","Chehalis","WA","Washington","53041","Lewis","53041","Lewis","46.6637","-122.9647","7533","500","polygon","FALSE","TRUE","America/Los_Angeles","3","98532","1840018472"
"Onalaska","Onalaska","WA","Washington","53041","Lewis","53041","Lewis","46.5783","-122.7112","709","171","polygon","FALSE","FALSE","America/Los_Angeles","3","98570","1840025264"
"Toledo","Toledo","WA","Washington","53041","Lewis","53041","Lewis","46.4414","-122.8496","751","738","polygon","FALSE","TRUE","America/Los_Angeles","3","98591","1840021162"
"Everson","Everson","WA","Washington","53073","Whatcom","53073","Whatcom","48.9123","-122.3510","4709.0","797","polygon","FALSE","TRUE","America/Los_Angeles","3","98247","1840019750"
"Belfair","Belfair","WA","Washington","53045","Mason","53045","Mason","47.4495","-122.8487","4063","212","polygon","FALSE","FALSE","America/Los_Angeles","3","98528","1840025252"
"Lynnwood","Lynnwood","WA","Washington","53061","Snohomish","53061","Snohomish","47.8285","-122.3035","38273","1890","polygon","FALSE","TRUE","America/Los_Angeles","3","98037 98036 98046","1840019788"
"Colton","Colton","WA","Washington","53075","Whitman","53075","Whitman","46.5675","-117.1285","467","292","polygon","FALSE","TRUE","America/Los_Angeles","3","99113","1840022315"
"Malden","Malden","WA","Washington","53075","Whitman","53075","Whitman","47.2296","-117.4731","209","122","polygon","FALSE","TRUE","America/Los_Angeles","3","99149","1840022313"
"Ames Lake","Ames Lake","WA","Washington","53033","King","53033","King","47.6346","-121.9664","1526","368","polygon","FALSE","FALSE","America/Los_Angeles","3","98053 98014","1840037846"
"Wilson Creek","Wilson Creek","WA","Washington","53025","Grant","53025","Grant","47.4230","-119.1176","212","85","polygon","FALSE","TRUE","America/Los_Angeles","3","98860","1840022294"
"North Yelm","North Yelm","WA","Washington","53067","Thurston","53067","Thurston","46.9647","-122.6029","2887","334","polygon","FALSE","FALSE","America/Los_Angeles","3","98597","1840037880"
"Mirrormont","Mirrormont","WA","Washington","53033","King","53033","King","47.4616","-121.9936","3682","136","polygon","FALSE","FALSE","America/Los_Angeles","3","98027","1840037876"
"Whidbey Island Station","Whidbey Island Station","WA","Washington","53029","Island","53029","Island","48.3387","-122.6616","1938","113","polygon","TRUE","TRUE","America/Los_Angeles","3","98277 98278","1840073897"
"Town and Country","Town and Country","WA","Washington","53063","Spokane","53063","Spokane","47.7259","-117.4221","5001","1607","polygon","FALSE","FALSE","America/Los_Angeles","3","99208","1840037888"
"Tokeland","Tokeland","WA","Washington","53049","Pacific","53049","Pacific","46.7090","-123.9839","330","248","polygon","FALSE","FALSE","America/Los_Angeles","3","98590","1840018469"
"Snoqualmie","Snoqualmie","WA","Washington","53033","King","53033","King","47.5293","-121.8412","26054.0","725","polygon","FALSE","TRUE","America/Los_Angeles","3","98065","1840021119"
"Bremerton","Bremerton","WA","Washington","53035","Kitsap","53035","Kitsap","47.5436","-122.7121","216480.0","556","polygon","FALSE","TRUE","America/Los_Angeles","2","98312 98314 98310 98367 98337","1840018410"
"East Cathlamet","East Cathlamet","WA","Washington","53069","Wahkiakum","53069","Wahkiakum","46.1968","-123.3580","503","113","polygon","FALSE","FALSE","America/Los_Angeles","3","98612","1840037849"
"Fort Lewis","Fort Lewis","WA","Washington","53053","Pierce","53053","Pierce","47.0955","-122.5672","13920","525","polygon","TRUE","TRUE","America/Los_Angeles","3","98439 98433","1840073933"
"Salmon Creek","Salmon Creek","WA","Washington","53011","Clark","53011","Clark","45.7099","-122.6632","21068","1281","polygon","FALSE","FALSE","America/Los_Angeles","3","98686 98685","1840018520"
"Skykomish","Skykomish","WA","Washington","53033","King","53033","King","47.7103","-121.3586","216","267","polygon","FALSE","TRUE","America/Los_Angeles","3","98288","1840022299"
"Tacoma","Tacoma","WA","Washington","53053","Pierce","53053","Pierce","47.2431","-122.4531","213418","1657","polygon","FALSE","TRUE","America/Los_Angeles","2","98422 98421 98402 98403 98404 98405 98408 98409 98406 98407 98465 98416 98418 98444 98401 98411 98412 98413 98415 98417 98419 98471 98481 98490","1840021129"
"Monroe","Monroe","WA","Washington","53061","Snohomish","53061","Snohomish","47.8596","-121.9853","18789","1183","polygon","FALSE","TRUE","America/Los_Angeles","3","98272","1840019791"
"Loomis","Loomis","WA","Washington","53047","Okanogan","53047","Okanogan","48.8235","-119.6398","117","52","polygon","FALSE","FALSE","America/Los_Angeles","3","98827","1840025235"
"Pomeroy","Pomeroy","WA","Washington","53023","Garfield","53023","Garfield","46.4737","-117.5967","1388","303","polygon","FALSE","TRUE","America/Los_Angeles","3","99347","1840019891"
"Brush Prairie","Brush Prairie","WA","Washington","53011","Clark","53011","Clark","45.7250","-122.5483","2783","139","polygon","FALSE","FALSE","America/Los_Angeles","3","98606 98662","1840017398"
"Silver Firs","Silver Firs","WA","Washington","53061","Snohomish","53061","Snohomish","47.8635","-122.1497","22937","1292","polygon","FALSE","FALSE","America/Los_Angeles","3","98296 98012 98208","1840037898"
"Nespelem","Nespelem","WA","Washington","53047","Okanogan","53047","Okanogan","48.1670","-118.9722","313","622","polygon","FALSE","TRUE","America/Los_Angeles","3","99155","1840022268"
"Meadowdale","Meadowdale","WA","Washington","53061","Snohomish","53061","Snohomish","47.8583","-122.3156","3049","1119","polygon","FALSE","FALSE","America/Los_Angeles","3","98026","1840023774"
"Shadow Lake","Shadow Lake","WA","Washington","53033","King","53033","King","47.4017","-122.0764","2655","197","polygon","FALSE","TRUE","America/Los_Angeles","3","98058 98038","1840042051"
"LaCrosse","LaCrosse","WA","Washington","53075","Whitman","53075","Whitman","46.8021","-117.9013","324","146","polygon","FALSE","TRUE","America/Los_Angeles","3","99143","1840037498"
"Concrete","Concrete","WA","Washington","53057","Skagit","53057","Skagit","48.5371","-121.7512","729","241","polygon","FALSE","TRUE","America/Los_Angeles","3","98237","1840022283"
"Sumas","Sumas","WA","Washington","53073","Whatcom","53073","Whatcom","48.9956","-122.2695","1464","384","polygon","FALSE","TRUE","America/Los_Angeles","3","98295","1840021045"
"Ruston","Ruston","WA","Washington","53053","Pierce","53053","Pierce","47.2982","-122.5100","828","1202","polygon","FALSE","TRUE","America/Los_Angeles","3","98407","1840021132"
"La Center","La Center","WA","Washington","53011","Clark","53011","Clark","45.8589","-122.6764","3171.0","513","polygon","FALSE","TRUE","America/Los_Angeles","3","98629 98642","1840019910"
"Marrowstone","Marrowstone","WA","Washington","53031","Jefferson","53031","Jefferson","48.0568","-122.6933","1084","66","polygon","FALSE","FALSE","America/Los_Angeles","3","98358","1840037856"
"Chelan Falls","Chelan Falls","WA","Washington","53007","Chelan","53007","Chelan","47.7995","-119.9882","86","118","polygon","FALSE","FALSE","America/Los_Angeles","3","98817","1840025245"
"Lake Cavanaugh","Lake Cavanaugh","WA","Washington","53057","Skagit","53057","Skagit","48.3225","-122.0122","179","89","polygon","FALSE","FALSE","America/Los_Angeles","3","98274","1840037851"
"Duluth","Duluth","WA","Washington","53011","Clark","53011","Clark","45.7838","-122.6470","1379","89","polygon","FALSE","FALSE","America/Los_Angeles","3","98642","1840140854"
"Sequim","Sequim","WA","Washington","53009","Clallam","53009","Clallam","48.0747","-123.0944","20750.0","432","polygon","FALSE","TRUE","America/Los_Angeles","3","98382","1840021076"
"Benton City","Benton City","WA","Washington","53005","Benton","53005","Benton","46.2624","-119.4814","4591.0","533","polygon","FALSE","TRUE","America/Los_Angeles","3","99320","1840018480"
"Moses Lake","Moses Lake","WA","Washington","53025","Grant","53025","Grant","47.1284","-119.2741","37774.0","499","polygon","FALSE","TRUE","America/Los_Angeles","3","98837","1840019817"
"Fircrest","Fircrest","WA","Washington","53053","Pierce","53053","Pierce","47.2308","-122.5157","6794","1665","polygon","FALSE","TRUE","America/Los_Angeles","3","98466","1840019854"
"Othello","Othello","WA","Washington","53001","Adams","53001","Adams","46.8222","-119.1651","12375.0","790","polygon","FALSE","TRUE","America/Los_Angeles","3","99344","1840019862"
"Mercer Island","Mercer Island","WA","Washington","53033","King","53033","King","47.5625","-122.2265","25261","1528","polygon","FALSE","TRUE","America/Los_Angeles","3","98040","1840019830"
"Enumclaw","Enumclaw","WA","Washington","53033","King","53033","King","47.2017","-121.9897","11784","878","polygon","FALSE","TRUE","America/Los_Angeles","3","98022","1840019825"
"Chico","Chico","WA","Washington","53035","Kitsap","53035","Kitsap","47.6234","-122.7198","2635","444","polygon","FALSE","FALSE","America/Los_Angeles","3","98312 98383","1840037630"
"Enetai","Enetai","WA","Washington","53035","Kitsap","53035","Kitsap","47.5885","-122.6058","2231","838","polygon","FALSE","FALSE","America/Los_Angeles","3","98310","1840023794"
"Hunts Point","Hunts Point","WA","Washington","53033","King","53033","King","47.6420","-122.2290","434","545","polygon","FALSE","TRUE","America/Los_Angeles","3","98004","1840021122"
"Clinton","Clinton","WA","Washington","53029","Island","53029","Island","47.9731","-122.3577","811","309","polygon","FALSE","FALSE","America/Los_Angeles","3","98236","1840037632"
"Hat Island","Hat Island","WA","Washington","53061","Snohomish","53061","Snohomish","48.0130","-122.3201","48","26","polygon","FALSE","TRUE","America/Los_Angeles","3","98201","1840041926"
"Marietta-Alderwood","Marietta-Alderwood","WA","Washington","53073","Whatcom","53073","Whatcom","48.7932","-122.5566","4495","294","polygon","FALSE","TRUE","America/Los_Angeles","3","98225 98226","1840073928"
"Waitsburg","Waitsburg","WA","Washington","53071","Walla Walla","53071","Walla Walla","46.2696","-118.1510","1195","388","polygon","FALSE","TRUE","America/Los_Angeles","3","99361","1840021173"
"Sunnyslope","Sunnyslope","WA","Washington","53007","Chelan","53007","Chelan","47.4913","-120.3493","3641","175","polygon","FALSE","FALSE","America/Los_Angeles","3","98801","1840136960"
"South Cle Elum","South Cle Elum","WA","Washington","53037","Kittitas","53037","Kittitas","47.1862","-120.9525","560","544","polygon","FALSE","TRUE","America/Los_Angeles","3","98943 98922","1840022304"
"Selah","Selah","WA","Washington","53077","Yakima","53077","Yakima","46.6482","-120.5389","7859","662","polygon","FALSE","TRUE","America/Los_Angeles","3","98942","1840021149"
"Lind","Lind","WA","Washington","53001","Adams","53001","Adams","46.9704","-118.6165","556","193","polygon","FALSE","TRUE","America/Los_Angeles","3","99341","1840021134"
"Five Corners","Five Corners","WA","Washington","53011","Clark","53011","Clark","45.6883","-122.5738","18405","1221","polygon","FALSE","FALSE","America/Los_Angeles","3","98662","1840037869"
"Winthrop","Winthrop","WA","Washington","53047","Okanogan","53047","Okanogan","48.4716","-120.1790","439","182","polygon","FALSE","TRUE","America/Los_Angeles","3","98862","1840022272"
"Normandy Park","Normandy Park","WA","Washington","53033","King","53033","King","47.4344","-122.3436","6649","1027","polygon","FALSE","TRUE","America/Los_Angeles","3","98166","1840019832"
"Home","Home","WA","Washington","53053","Pierce","53053","Pierce","47.2790","-122.7744","1375","83","polygon","FALSE","FALSE","America/Los_Angeles","3","98349","1840023831"
"Graham","Graham","WA","Washington","53053","Pierce","53053","Pierce","47.0407","-122.2757","26939","297","polygon","FALSE","FALSE","America/Los_Angeles","3","98338","1840017365"
"Yacolt","Yacolt","WA","Washington","53011","Clark","53011","Clark","45.8650","-122.4059","1735","1210","polygon","FALSE","TRUE","America/Los_Angeles","3","98675","1840022333"
"Packwood","Packwood","WA","Washington","53041","Lewis","53041","Lewis","46.6085","-121.6702","230","89","polygon","FALSE","FALSE","America/Los_Angeles","3","98361","1840025265"
"Queets","Queets","WA","Washington","53027","Grays Harbor","53027|53031","Grays Harbor|Jefferson","47.5314","-124.3385","199","55","polygon","FALSE","FALSE","America/Los_Angeles","3","98331","1840037807"
"Finley","Finley","WA","Washington","53005","Benton","53005","Benton","46.1697","-119.0446","6015","201","polygon","FALSE","FALSE","America/Los_Angeles","3","99337","1840017380"
"Northport","Northport","WA","Washington","53065","Stevens","53065","Stevens","48.9159","-117.7796","296","202","polygon","FALSE","TRUE","America/Los_Angeles","3","99157","1840022274"
"Medina","Medina","WA","Washington","53033","King","53033","King","47.6256","-122.2338","3267","879","polygon","FALSE","TRUE","America/Los_Angeles","3","98039","1840019829"
"Browns Point","Browns Point","WA","Washington","53053","Pierce","53053","Pierce","47.3036","-122.4369","1122","1076","polygon","FALSE","FALSE","America/Los_Angeles","3","98422","1840037624"
"Summit","Summit","WA","Washington","53053","Pierce","53053","Pierce","47.1694","-122.3628","7876","597","polygon","FALSE","FALSE","America/Los_Angeles","3","98371 98373 98446","1840018456"
"Albion","Albion","WA","Washington","53075","Whitman","53075","Whitman","46.7916","-117.2511","608","598","polygon","FALSE","TRUE","America/Los_Angeles","3","99163 99102","1840021136"
"Sudden Valley","Sudden Valley","WA","Washington","53073","Whatcom","53073","Whatcom","48.7199","-122.3468","7621","470","polygon","FALSE","FALSE","America/Los_Angeles","3","98229","1840037740"
"Bunk Foss","Bunk Foss","WA","Washington","53061","Snohomish","53061","Snohomish","47.9618","-122.0943","3604","359","polygon","FALSE","TRUE","America/Los_Angeles","3","98290 98205","1840041912"
"Gleed","Gleed","WA","Washington","53077","Yakima","53077","Yakima","46.6594","-120.6025","2474","176","polygon","FALSE","FALSE","America/Los_Angeles","3","98937 98908","1840017370"
"Maryhill","Maryhill","WA","Washington","53039","Klickitat","53039","Klickitat","45.6928","-120.8070","73","10","polygon","FALSE","FALSE","America/Los_Angeles","3","98620","1840017403"
"Oyehut","Oyehut","WA","Washington","53027","Grays Harbor","53027","Grays Harbor","47.0233","-124.1632","0","0","polygon","FALSE","FALSE","America/Los_Angeles","3","98550","1840037697"
"Alder","Alder","WA","Washington","53053","Pierce","53053","Pierce","46.7872","-122.2667","133","15","polygon","FALSE","FALSE","America/Los_Angeles","3","98328","1840023829"
"Ridgefield","Ridgefield","WA","Washington","53011","Clark","53011","Clark","45.8116","-122.7052","7117.0","422","polygon","FALSE","TRUE","America/Los_Angeles","3","98642","1840019909"
"Bryant","Bryant","WA","Washington","53061","Snohomish","53061","Snohomish","48.2400","-122.1638","1990","125","polygon","FALSE","FALSE","America/Los_Angeles","3","98223","1840023772"
"Nisqually Indian Community","Nisqually Indian Community","WA","Washington","53067","Thurston","53067","Thurston","47.0178","-122.6728","690","94","polygon","FALSE","TRUE","America/Los_Angeles","3","98513","1840074509"
"Porter","Porter","WA","Washington","53027","Grays Harbor","53027","Grays Harbor","46.9489","-123.2736","222","9","polygon","FALSE","FALSE","America/Los_Angeles","3","98541","1840023818"
"Kettle Falls","Kettle Falls","WA","Washington","53065","Stevens","53065","Stevens","48.6055","-118.0620","1611","585","polygon","FALSE","TRUE","America/Los_Angeles","3","99141","1840019764"
"Chelan","Chelan","WA","Washington","53007","Chelan","53007","Chelan","47.8417","-120.0270","6078.0","246","polygon","FALSE","TRUE","America/Los_Angeles","3","98816","1840018369"
"Edison","Edison","WA","Washington","53057","Skagit","53057","Skagit","48.5602","-122.4310","156","104","polygon","FALSE","FALSE","America/Los_Angeles","3","98232","1840017314"
"Neilton","Neilton","WA","Washington","53027","Grays Harbor","53027","Grays Harbor","47.4031","-123.8782","373","14","polygon","FALSE","FALSE","America/Los_Angeles","3","98552 98575 98566","1840018443"
"Fox Island","Fox Island","WA","Washington","53053","Pierce","53053","Pierce","47.2475","-122.6255","3848","286","polygon","FALSE","FALSE","America/Los_Angeles","3","98333","1840037870"
"Renton","Renton","WA","Washington","53033","King","53033","King","47.4758","-122.1905","101379","1669","polygon","FALSE","TRUE","America/Los_Angeles","2","98059 98058 98057 98056 98055","1840019827"
"Baring","Baring","WA","Washington","53033","King","53033","King","47.7661","-121.4803","173","64","polygon","FALSE","FALSE","America/Los_Angeles","3","98224","1840017339"
"Hobart","Hobart","WA","Washington","53033","King","53033","King","47.4120","-121.9960","6736","138","polygon","FALSE","FALSE","America/Los_Angeles","3","98038 98025","1840017344"
"Wallula","Wallula","WA","Washington","53071","Walla Walla","53071","Walla Walla","46.0847","-118.9056","329","1212","polygon","FALSE","FALSE","America/Los_Angeles","3","99363","1840018489"
"Touchet","Touchet","WA","Washington","53071","Walla Walla","53071","Walla Walla","46.0412","-118.6724","437","138","polygon","FALSE","FALSE","America/Los_Angeles","3","99360","1840018488"
"Leavenworth","Leavenworth","WA","Washington","53007","Chelan","53007","Chelan","47.5948","-120.6633","3332.0","580","polygon","FALSE","TRUE","America/Los_Angeles","3","98826","1840019778"
"Fobes Hill","Fobes Hill","WA","Washington","53061","Snohomish","53061","Snohomish","47.9391","-122.1341","2779","230","polygon","FALSE","FALSE","America/Los_Angeles","3","98290","1840037736"
"Harrington","Harrington","WA","Washington","53043","Lincoln","53043","Lincoln","47.4802","-118.2552","411","404","polygon","FALSE","TRUE","America/Los_Angeles","3","99134","1840019819"
"Port Orchard","Port Orchard","WA","Washington","53035","Kitsap","53035","Kitsap","47.5164","-122.6610","13997","559","polygon","FALSE","TRUE","America/Los_Angeles","3","98366 98367","1840019821"
"Alderwood Manor","Alderwood Manor","WA","Washington","53061","Snohomish","53061","Snohomish","47.8147","-122.2676","8817","1711","polygon","FALSE","FALSE","America/Los_Angeles","3","98036","1840017323"
"Kennewick","Kennewick","WA","Washington","53005","Benton","53005","Benton","46.1979","-119.1732","232915.0","1147","polygon","FALSE","TRUE","America/Los_Angeles","2","99337 99336 99338","1840018481"
"Ahtanum","Ahtanum","WA","Washington","53077","Yakima","53077","Yakima","46.5583","-120.6109","3076","171","polygon","FALSE","FALSE","America/Los_Angeles","3","98903 98908 98909","1840017368"
"Wilderness Rim","Wilderness Rim","WA","Washington","53033","King","53033","King","47.4463","-121.7691","1443","895","polygon","FALSE","TRUE","America/Los_Angeles","3","98045","1840042145"
"Machias","Machias","WA","Washington","53061","Snohomish","53061","Snohomish","47.9917","-122.0515","886","139","polygon","FALSE","FALSE","America/Los_Angeles","3","98258 98290","1840017325"
"Bingen","Bingen","WA","Washington","53039","Klickitat","53039","Klickitat","45.7139","-121.4704","729","452","polygon","FALSE","TRUE","America/Los_Angeles","3","98605","1840018529"
"Four Lakes","Four Lakes","WA","Washington","53063","Spokane","53063","Spokane","47.5582","-117.5891","403","46","polygon","FALSE","FALSE","America/Los_Angeles","3","99004 99014","1840023784"
"Springdale","Springdale","WA","Washington","53065","Stevens","53065","Stevens","48.0572","-117.7466","293","100","polygon","FALSE","TRUE","America/Los_Angeles","3","99173","1840022275"
"Washtucna","Washtucna","WA","Washington","53001","Adams","53001","Adams","46.7538","-118.3106","204","120","polygon","FALSE","TRUE","America/Los_Angeles","3","99371","1840022312"
"Covington","Covington","WA","Washington","53033","King","53033","King","47.3668","-122.1044","20916","1363","polygon","FALSE","TRUE","America/Los_Angeles","3","98042","1840018425"
"Allyn","Allyn","WA","Washington","53045","Mason","53045","Mason","47.3863","-122.8386","2650","640","polygon","FALSE","FALSE","America/Los_Angeles","3","98524","1840025251"
"North Sultan","North Sultan","WA","Washington","53061","Snohomish","53061","Snohomish","47.8827","-121.8251","241","157","polygon","FALSE","FALSE","America/Los_Angeles","3","98294","1840037859"
"Union Gap","Union Gap","WA","Washington","53077","Yakima","53077","Yakima","46.5567","-120.4977","6161","426","polygon","FALSE","TRUE","America/Los_Angeles","3","98903","1840021152"
"Shelton","Shelton","WA","Washington","53045","Mason","53045","Mason","47.2188","-123.1127","19296.0","675","polygon","FALSE","TRUE","America/Los_Angeles","3","98584","1840021123"
"Chinook","Chinook","WA","Washington","53049","Pacific","53049","Pacific","46.2755","-123.9425","300","114","polygon","FALSE","FALSE","America/Los_Angeles","3","98624 98614","1840017374"
"Blaine","Blaine","WA","Washington","53073","Whatcom","53073","Whatcom","48.9839","-122.7414","5311","365","polygon","FALSE","TRUE","America/Los_Angeles","3","98230 98231","1840018347"
"Port Hadlock-Irondale","Port Hadlock-Irondale","WA","Washington","53031","Jefferson","53031","Jefferson","48.0316","-122.7890","3765","217","polygon","FALSE","TRUE","America/Los_Angeles","3","98325 98368 98339","1840074571"
"Burley","Burley","WA","Washington","53035","Kitsap","53035","Kitsap","47.4166","-122.6377","1941","157","polygon","FALSE","FALSE","America/Los_Angeles","3","98359 98367 98322","1840023793"
"Mount Vernon","Mount Vernon","WA","Washington","53057","Skagit","53057","Skagit","48.4202","-122.3116","69528.0","1099","polygon","FALSE","TRUE","America/Los_Angeles","3","98274 98273","1840019774"
"Electric City","Electric City","WA","Washington","53025","Grant","53025","Grant","47.9220","-119.0475","1001","189","polygon","FALSE","TRUE","America/Los_Angeles","3","99123 99133","1840021104"
"Ronald","Ronald","WA","Washington","53037","Kittitas","53037","Kittitas","47.2338","-121.0335","284","118","polygon","FALSE","FALSE","America/Los_Angeles","3","98940","1840018438"
"Nespelem Community","Nespelem Community","WA","Washington","53047","Okanogan","53047","Okanogan","48.1715","-119.0244","259","4","polygon","FALSE","TRUE","America/Los_Angeles","3","99155","1840037116"
"Amanda Park","Amanda Park","WA","Washington","53027","Grays Harbor","53027","Grays Harbor","47.4532","-123.9194","119","5","polygon","FALSE","FALSE","America/Los_Angeles","3","98526","1840023816"
"Clarkston Heights-Vineland","Clarkston Heights-Vineland","WA","Washington","53003","Asotin","53003","Asotin","46.3876","-117.0831","6453","413","polygon","FALSE","TRUE","America/Los_Angeles","3","99403","1840073891"
"Boulevard Park","Boulevard Park","WA","Washington","53033","King","53033","King","47.5135","-122.3159","3916","1264","polygon","FALSE","FALSE","America/Los_Angeles","3","98108 98168","1840037519"
"Big Lake","Big Lake","WA","Washington","53057","Skagit","53057","Skagit","48.3933","-122.2422","1784","182","polygon","FALSE","FALSE","America/Los_Angeles","3","98274","1840017313"
"Boyds","Boyds","WA","Washington","53019","Ferry","53019","Ferry","48.7245","-118.1321","76","150","polygon","FALSE","FALSE","America/Los_Angeles","3","99141","1840026091"
"Parkwood","Parkwood","WA","Washington","53035","Kitsap","53035","Kitsap","47.5266","-122.5986","6559","972","polygon","FALSE","FALSE","America/Los_Angeles","3","98366","1840037518"
"Deer Park","Deer Park","WA","Washington","53063","Spokane","53063","Spokane","47.9642","-117.4397","3868.0","229","polygon","FALSE","TRUE","America/Los_Angeles","3","99006","1840018400"
"Humptulips","Humptulips","WA","Washington","53027","Grays Harbor","53027","Grays Harbor","47.2491","-123.9348","277","11","polygon","FALSE","FALSE","America/Los_Angeles","3","98552","1840017361"
