"city","city_ascii","state_id","state_name","county_fips","county_name","county_fips_all","county_name_all","lat","lng","population","density","source","military","incorporated","timezone","ranking","zips","id"
"Tenino","Tenino","WA","Washington","53067","Thurston","53067","Thurston","46.8537","-122.8607","1830","491","polygon","FALSE","TRUE","America/Los_Angeles","3","98589","1840021144"
"Chain Lake","Chain Lake","WA","Washington","53061","Snohomish","53061","Snohomish","47.9038","-121.9861","4280","156","polygon","FALSE","TRUE","America/Los_Angeles","3","98290","1840041915"
"Rosburg","Rosburg","WA","Washington","53069","Wahkiakum","53069","Wahkiakum","46.3076","-123.6344","385","6","polygon","FALSE","FALSE","America/Los_Angeles","3","98643","1840023878"
"Farmington","Farmington","WA","Washington","53075","Whitman","53075","Whitman","47.0887","-117.0464","154","164","polygon","FALSE","TRUE","America/Los_Angeles","3","99128","1840021140"
"Creston","Creston","WA","Washington","53043","Lincoln","53043","Lincoln","47.7595","-118.5200","226","212","polygon","FALSE","TRUE","America/Los_Angeles","3","99117","1840021109"
"Erlands Point-Kitsap Lake","Erlands Point-Kitsap Lake","WA","Washington","53035","Kitsap","53035","Kitsap","47.5973","-122.7021","2973","655","polygon","FALSE","TRUE","America/Los_Angeles","3","98312","1840073915"
"Fife","Fife","WA","Washington","53053","Pierce","53053","Pierce","47.2328","-122.3518","10154","684","polygon","FALSE","TRUE","America/Los_Angeles","3","98424","1840019853"
"Monroe North","Monroe North","WA","Washington","53061","Snohomish","53061","Snohomish","47.8830","-121.9882","1704","282","polygon","FALSE","TRUE","America/Los_Angeles","3","98290 98272","1840042006"
"Cashmere","Cashmere","WA","Washington","53007","Chelan","53007","Chelan","47.5175","-120.4671","4864.0","1061","polygon","FALSE","TRUE","America/Los_Angeles","3","98815","1840018368"
"Arlington Heights","Arlington Heights","WA","Washington","53061","Snohomish","53061","Snohomish","48.2119","-122.0630","2826","129","polygon","FALSE","FALSE","America/Los_Angeles","3","98223","1840037743"
"Elma","Elma","WA","Washington","53027","Grays Harbor","53027","Grays Harbor","47.0055","-123.4112","3092","468","polygon","FALSE","TRUE","America/Los_Angeles","3","98541","1840019844"
"Geneva","Geneva","WA","Washington","53073","Whatcom","53073","Whatcom","48.7461","-122.4064","2632","958","polygon","FALSE","FALSE","America/Los_Angeles","3","98229","1840017291"
"Vashon","Vashon","WA","Washington","53033","King","53033","King","47.4122","-122.4726","9635","100","polygon","FALSE","FALSE","America/Los_Angeles","3","98070 98013","1840018414"
"Spangle","Spangle","WA","Washington","53063","Spokane","53063","Spokane","47.4299","-117.3812","307","339","polygon","FALSE","TRUE","America/Los_Angeles","3","99031","1840022290"
"Alderton","Alderton","WA","Washington","53053","Pierce","53053","Pierce","47.1718","-122.2192","3303","240","polygon","FALSE","FALSE","America/Los_Angeles","3","98390 98372 98374","1840037523"
"Brewster","Brewster","WA","Washington","53047","Okanogan","53047","Okanogan","48.1034","-119.7751","2343","785","polygon","FALSE","TRUE","America/Los_Angeles","3","98812","1840018359"
"Inchelium","Inchelium","WA","Washington","53019","Ferry","53019","Ferry","48.3378","-118.2372","413","6","polygon","FALSE","FALSE","America/Los_Angeles","3","99138","1840017307"
"Junction City","Junction City","WA","Washington","53027","Grays Harbor","53027","Grays Harbor","46.9713","-123.7651","10","2","polygon","FALSE","FALSE","America/Los_Angeles","3","98520","1840017362"
"Lake Stickney","Lake Stickney","WA","Washington","53061","Snohomish","53061","Snohomish","47.8709","-122.2596","9667","2441","polygon","FALSE","FALSE","America/Los_Angeles","2","98087 98204","1840037894"
"Clarkston","Clarkston","WA","Washington","53003","Asotin","53003","Asotin","46.4152","-117.0502","7396","1430","polygon","FALSE","TRUE","America/Los_Angeles","3","99403","1840018499"
"Stanwood","Stanwood","WA","Washington","53061","Snohomish","53061","Snohomish","48.2451","-122.3426","7161.0","937","polygon","FALSE","TRUE","America/Los_Angeles","3","98292","1840021079"
"Indianola","Indianola","WA","Washington","53035","Kitsap","53035","Kitsap","47.7566","-122.5142","3520","258","polygon","FALSE","FALSE","America/Los_Angeles","3","98342 98346 98370","1840017337"
"Lakeland North","Lakeland North","WA","Washington","53033","King","53033","King","47.3374","-122.2814","12487","1452","polygon","FALSE","TRUE","America/Los_Angeles","3","98001","1840074254"
"Longbranch","Longbranch","WA","Washington","53053","Pierce","53053","Pierce","47.2257","-122.7739","3236","62","polygon","FALSE","FALSE","America/Los_Angeles","3","98349 98351","1840023835"
"Wenatchee","Wenatchee","WA","Washington","53007","Chelan","53007","Chelan","47.4338","-120.3286","71512.0","1314","polygon","FALSE","TRUE","America/Los_Angeles","3","98801","1840021074"
"Bellevue","Bellevue","WA","Washington","53033","King","53033","King","47.5953","-122.1550","144444","1666","polygon","FALSE","TRUE","America/Los_Angeles","2","98004 98005 98006 98007 98008 98009 98015","1840018417"
"Fords Prairie","Fords Prairie","WA","Washington","53041","Lewis","53041","Lewis","46.7461","-123.0029","1812","188","polygon","FALSE","FALSE","America/Los_Angeles","3","98531","1840017377"
"Bangor Base","Bangor Base","WA","Washington","53035","Kitsap","53035","Kitsap","47.7227","-122.7146","6358","221","polygon","TRUE","TRUE","America/Los_Angeles","3","98315","1840036750"
"Minnehaha","Minnehaha","WA","Washington","53011","Clark","53011","Clark","45.6577","-122.6204","11767","2056","polygon","FALSE","FALSE","America/Los_Angeles","2","98661","1840018518"
"Napavine","Napavine","WA","Washington","53041","Lewis","53041","Lewis","46.5844","-122.9007","1893","252","polygon","FALSE","TRUE","America/Los_Angeles","3","98565 98532","1840019884"
"Mansfield","Mansfield","WA","Washington","53017","Douglas","53017","Douglas","47.8119","-119.6380","339","401","polygon","FALSE","TRUE","America/Los_Angeles","3","98830","1840022286"
"Rosedale","Rosedale","WA","Washington","53053","Pierce","53053","Pierce","47.3453","-122.6368","4459","379","polygon","FALSE","FALSE","America/Los_Angeles","3","98332","1840023839"
"Winlock","Winlock","WA","Washington","53041","Lewis","53041","Lewis","46.4907","-122.9342","1354","405","polygon","FALSE","TRUE","America/Los_Angeles","3","98596","1840021164"
"Sisco Heights","Sisco Heights","WA","Washington","53061","Snohomish","53061","Snohomish","48.1188","-122.1076","2810","86","polygon","FALSE","FALSE","America/Los_Angeles","3","98223","1840037510"
"Kent","Kent","WA","Washington","53033","King","53033","King","47.3887","-122.2128","128458","1470","polygon","FALSE","TRUE","America/Los_Angeles","2","98031 98030 98032 98042 98035 98064 98089","1840018424"
"George","George","WA","Washington","53025","Grant","53025","Grant","47.0845","-119.8598","507","151","polygon","FALSE","TRUE","America/Los_Angeles","3","98848 98824","1840019814"
"Mount Vista","Mount Vista","WA","Washington","53011","Clark","53011","Clark","45.7373","-122.6315","8525","628","polygon","FALSE","FALSE","America/Los_Angeles","3","98642 98686","1840037858"
"Port Angeles East","Port Angeles East","WA","Washington","53009","Clallam","53009","Clallam","48.1041","-123.3695","3627","371","polygon","FALSE","TRUE","America/Los_Angeles","3","98362","1840074570"
"Santiago","Santiago","WA","Washington","53027","Grays Harbor","53027","Grays Harbor","47.2975","-124.2327","26","6","polygon","FALSE","TRUE","America/Los_Angeles","3","98587","1840042040"
"Curlew","Curlew","WA","Washington","53019","Ferry","53019","Ferry","48.8777","-118.6045","149","75","polygon","FALSE","FALSE","America/Los_Angeles","3","99118","1840025242"
"Prairie Ridge","Prairie Ridge","WA","Washington","53053","Pierce","53053","Pierce","47.1443","-122.1408","12733","1202","polygon","FALSE","FALSE","America/Los_Angeles","3","98360 98391","1840037882"
"Mill Creek","Mill Creek","WA","Washington","53061","Snohomish","53061","Snohomish","47.8633","-122.2034","20832","1747","polygon","FALSE","TRUE","America/Los_Angeles","3","98012 98082","1840019790"
"Lake McMurray","Lake McMurray","WA","Washington","53057","Skagit","53057","Skagit","48.3129","-122.2317","134","63","polygon","FALSE","FALSE","America/Los_Angeles","3","98274","1840037893"
"Wilbur","Wilbur","WA","Washington","53043","Lincoln","53043","Lincoln","47.7583","-118.7110","839","249","polygon","FALSE","TRUE","America/Los_Angeles","3","99185","1840022296"
"Lewisville","Lewisville","WA","Washington","53011","Clark","53011","Clark","45.8127","-122.5144","1503","107","polygon","FALSE","FALSE","America/Los_Angeles","3","98604","1840037855"
"Vaughn","Vaughn","WA","Washington","53053","Pierce","53053","Pierce","47.3550","-122.7773","342","57","polygon","FALSE","FALSE","America/Los_Angeles","3","98329 98394","1840023841"
"Pacific","Pacific","WA","Washington","53033","King","53033|53053","King|Pierce","47.2611","-122.2507","7184","1149","polygon","FALSE","TRUE","America/Los_Angeles","3","98001 98047","1840019834"
"Okanogan","Okanogan","WA","Washington","53047","Okanogan","53047","Okanogan","48.3671","-119.5784","2571","493","polygon","FALSE","TRUE","America/Los_Angeles","3","98840","1840019760"
"Tonasket","Tonasket","WA","Washington","53047","Okanogan","53047","Okanogan","48.7077","-119.4412","1126","459","polygon","FALSE","TRUE","America/Los_Angeles","3","98855","1840021057"
"Brinnon","Brinnon","WA","Washington","53031","Jefferson","53031","Jefferson","47.6689","-122.9249","703","28","polygon","FALSE","FALSE","America/Los_Angeles","3","98320","1840017329"
"Thorp","Thorp","WA","Washington","53037","Kittitas","53037","Kittitas","47.0656","-120.6709","297","93","polygon","FALSE","FALSE","America/Los_Angeles","3","98946","1840018439"
"Fern Prairie","Fern Prairie","WA","Washington","53011","Clark","53011","Clark","45.6370","-122.3963","2611","200","polygon","FALSE","FALSE","America/Los_Angeles","3","98607","1840023890"
"Raft Island","Raft Island","WA","Washington","53053","Pierce","53053","Pierce","47.3293","-122.6686","341","475","polygon","FALSE","TRUE","America/Los_Angeles","3","98335","1840042039"
"Spokane","Spokane","WA","Washington","53063","Spokane","53063","Spokane","47.6671","-117.4330","403043.0","1218","polygon","FALSE","TRUE","America/Los_Angeles","2","99201 99203 99202 99205 99204 99207 99208 99224 99223 99001 99212 99209 99210 99219 99220 99252 99256 99258 99260","1840021093"
"Herron Island","Herron Island","WA","Washington","53053","Pierce","53053","Pierce","47.2645","-122.8348","69","55","polygon","FALSE","TRUE","America/Los_Angeles","3","98349","1840041931"
"Quilcene","Quilcene","WA","Washington","53031","Jefferson","53031","Jefferson","47.8369","-122.9058","432","18","polygon","FALSE","FALSE","America/Los_Angeles","3","98376","1840018389"
"Coulee Dam","Coulee Dam","WA","Washington","53047","Okanogan","53047|53025|53017","Okanogan|Grant|Douglas","47.9688","-118.9761","1079","576","polygon","FALSE","TRUE","America/Los_Angeles","3","99116","1840022270"
"Entiat","Entiat","WA","Washington","53007","Chelan","53007","Chelan","47.6780","-120.2175","1223","216","polygon","FALSE","TRUE","America/Los_Angeles","3","98822","1840019777"
"Lacey","Lacey","WA","Washington","53067","Thurston","53067","Thurston","47.0458","-122.7934","49748","1132","polygon","FALSE","TRUE","America/Los_Angeles","3","98503 98516 98509","1840019866"
"Malone","Malone","WA","Washington","53027","Grays Harbor","53027","Grays Harbor","46.9779","-123.3035","543","23","polygon","FALSE","FALSE","America/Los_Angeles","3","98559 98541","1840026097"
"Federal Way","Federal Way","WA","Washington","53033","King","53033","King","47.3090","-122.3359","96690","1679","polygon","FALSE","TRUE","America/Los_Angeles","3","98023 98003 98063 98093","1840019826"
"Hartline","Hartline","WA","Washington","53025","Grant","53025","Grant","47.6895","-119.1081","154","178","polygon","FALSE","TRUE","America/Los_Angeles","3","99135","1840021105"
"McChord AFB","McChord AFB","WA","Washington","53053","Pierce","53053","Pierce","47.1328","-122.4924","3337","216","polygon","TRUE","TRUE","America/Los_Angeles","3","98439 98438","1840073929"
"Mabton","Mabton","WA","Washington","53077","Yakima","53077","Yakima","46.2115","-119.9938","2532.0","1064","polygon","FALSE","TRUE","America/Los_Angeles","3","98935","1840019873"
"Algona","Algona","WA","Washington","53033","King","53033","King","47.2822","-122.2504","3185","933","polygon","FALSE","TRUE","America/Los_Angeles","3","98001 98047","1840018415"
"North Lynnwood","North Lynnwood","WA","Washington","53061","Snohomish","53061","Snohomish","47.8533","-122.2762","20626","2549","polygon","FALSE","FALSE","America/Los_Angeles","2","98087 98037","1840037895"
"Deming","Deming","WA","Washington","53073","Whatcom","53073","Whatcom","48.8381","-122.2313","240","17","polygon","FALSE","FALSE","America/Los_Angeles","3","98247 98244","1840018345"
"Everson","Everson","WA","Washington","53073","Whatcom","53073","Whatcom","48.9123","-122.3510","4709.0","797","polygon","FALSE","TRUE","America/Los_Angeles","3","98247","1840019750"
"Wilson Creek","Wilson Creek","WA","Washington","53025","Grant","53025","Grant","47.4230","-119.1176","212","85","polygon","FALSE","TRUE","America/Los_Angeles","3","98860","1840022294"
"Snoqualmie","Snoqualmie","WA","Washington","53033","King","53033","King","47.5293","-121.8412","26054.0","725","polygon","FALSE","TRUE","America/Los_Angeles","3","98065","1840021119"
"Tacoma","Tacoma","WA","Washington","53053","Pierce","53053","Pierce","47.2431","-122.4531","213418","1657","polygon","FALSE","TRUE","America/Los_Angeles","2","98422 98421 98402 98403 98404 98405 98408 98409 98406 98407 98465 98416 98418 98444 98401 98411 98412 98413 98415 98417 98419 98471 98481 98490","1840021129"
"Nespelem","Nespelem","WA","Washington","53047","Okanogan","53047","Okanogan","48.1670","-118.9722","313","622","polygon","FALSE","TRUE","America/Los_Angeles","3","99155","1840022268"
"Ruston","Ruston","WA","Washington","53053","Pierce","53053","Pierce","47.2982","-122.5100","828","1202","polygon","FALSE","TRUE","America/Los_Angeles","3","98407","1840021132"
"Sequim","Sequim","WA","Washington","53009","Clallam","53009","Clallam","48.0747","-123.0944","20750.0","432","polygon","FALSE","TRUE","America/Los_Angeles","3","98382","1840021076"
"Enumclaw","Enumclaw","WA","Washington","53033","King","53033","King","47.2017","-121.9897","11784","878","polygon","FALSE","TRUE","America/Los_Angeles","3","98022","1840019825"
"Marietta-Alderwood","Marietta-Alderwood","WA","Washington","53073","Whatcom","53073","Whatcom","48.7932","-122.5566","4495","294","polygon","FALSE","TRUE","America/Los_Angeles","3","98225 98226","1840073928"
"Five Corners","Five Corners","WA","Washington","53011","Clark","53011","Clark","45.6883","-122.5738","18405","1221","polygon","FALSE","FALSE","America/Los_Angeles","3","98662","1840037869"
"Packwood","Packwood","WA","Washington","53041","Lewis","53041","Lewis","46.6085","-121.6702","230","89","polygon","FALSE","FALSE","America/Los_Angeles","3","98361","1840025265"
"Summit","Summit","WA","Washington","53053","Pierce","53053","Pierce","47.1694","-122.3628","7876","597","polygon","FALSE","FALSE","America/Los_Angeles","3","98371 98373 98446","1840018456"
"Oyehut","Oyehut","WA","Washington","53027","Grays Harbor","53027","Grays Harbor","47.0233","-124.1632","0","0","polygon","FALSE","FALSE","America/Los_Angeles","3","98550","1840037697"
"Kettle Falls","Kettle Falls","WA","Washington","53065","Stevens","53065","Stevens","48.6055","-118.0620","1611","585","polygon","FALSE","TRUE","America/Los_Angeles","3","99141","1840019764"
"Baring","Baring","WA","Washington","53033","King","53033","King","47.7661","-121.4803","173","64","polygon","FALSE","FALSE","America/Los_Angeles","3","98224","1840017339"
"Harrington","Harrington","WA","Washington","53043","Lincoln","53043","Lincoln","47.4802","-118.2552","411","404","polygon","FALSE","TRUE","America/Los_Angeles","3","99134","1840019819"
"Machias","Machias","WA","Washington","53061","Snohomish","53061","Snohomish","47.9917","-122.0515","886","139","polygon","FALSE","FALSE","America/Los_Angeles","3","98258 98290","1840017325"
"Allyn","Allyn","WA","Washington","53045","Mason","53045","Mason","47.3863","-122.8386","2650","640","polygon","FALSE","FALSE","America/Los_Angeles","3","98524","1840025251"
"Port Hadlock-Irondale","Port Hadlock-Irondale","WA","Washington","53031","Jefferson","53031","Jefferson","48.0316","-122.7890","3765","217","polygon","FALSE","TRUE","America/Los_Angeles","3","98325 98368 98339","1840074571"
"Amanda Park","Amanda Park","WA","Washington","53027","Grays Harbor","53027","Grays Harbor","47.4532","-123.9194","119","5","polygon","FALSE","FALSE","America/Los_Angeles","3","98526","1840023816"
"Deer Park","Deer Park","WA","Washington","53063","Spokane","53063","Spokane","47.9642","-117.4397","3868.0","229","polygon","FALSE","TRUE","America/Los_Angeles","3","99006","1840018400"
"Dixie","Dixie","WA","Washington","53071","Walla Walla","53071","Walla Walla","46.1392","-118.1480","256","182","polygon","FALSE","FALSE","America/Los_Angeles","3","99329 99361","1840018487"
"Cherry Grove","Cherry Grove","WA","Washington","53011","Clark","53011","Clark","45.8021","-122.5764","689","112","polygon","FALSE","FALSE","America/Los_Angeles","3","98604","1840037538"
"Startup","Startup","WA","Washington","53061","Snohomish","53061","Snohomish","47.8671","-121.7495","683","64","polygon","FALSE","FALSE","America/Los_Angeles","3","98294 98293","1840018380"
"Brady","Brady","WA","Washington","53027","Grays Harbor","53027","Grays Harbor","47.0064","-123.5321","360","22","polygon","FALSE","FALSE","America/Los_Angeles","3","98563","1840017357"
"Mountlake Terrace","Mountlake Terrace","WA","Washington","53061","Snohomish","53061","Snohomish","47.7921","-122.3076","21337","2021","polygon","FALSE","TRUE","America/Los_Angeles","2","98043","1840019792"
"Verlot","Verlot","WA","Washington","53061","Snohomish","53061","Snohomish","48.1002","-121.7679","457","16","polygon","FALSE","FALSE","America/Los_Angeles","3","98252","1840018376"
"Naselle","Naselle","WA","Washington","53049","Pacific","53049","Pacific","46.3650","-123.8013","376","63","polygon","FALSE","FALSE","America/Los_Angeles","3","98638","1840018467"
"Endicott","Endicott","WA","Washington","53075","Whitman","53075","Whitman","46.9282","-117.6867","305","397","polygon","FALSE","TRUE","America/Los_Angeles","3","99125","1840021137"
"Grays River","Grays River","WA","Washington","53069","Wahkiakum","53069","Wahkiakum","46.3608","-123.5890","425","8","polygon","FALSE","FALSE","America/Los_Angeles","3","98621","1840023877"
"Raymond","Raymond","WA","Washington","53049","Pacific","53049","Pacific","46.6838","-123.7380","4136.0","275","polygon","FALSE","TRUE","America/Los_Angeles","3","98577","1840019881"
"Bay Center","Bay Center","WA","Washington","53049","Pacific","53049","Pacific","46.6211","-123.9533","215","88","polygon","FALSE","FALSE","America/Los_Angeles","3","98527","1840017375"
"Ocean Park","Ocean Park","WA","Washington","53049","Pacific","53049","Pacific","46.4961","-124.0443","1782","227","polygon","FALSE","FALSE","America/Los_Angeles","3","98640 98637","1840018468"
"Warm Beach","Warm Beach","WA","Washington","53061","Snohomish","53061","Snohomish","48.1649","-122.3442","2495","236","polygon","FALSE","FALSE","America/Los_Angeles","3","98292","1840018377"
"Ephrata","Ephrata","WA","Washington","53025","Grant","53025","Grant","47.3119","-119.5344","7275.0","298","polygon","FALSE","TRUE","America/Los_Angeles","3","98823","1840019813"
"Twisp","Twisp","WA","Washington","53047","Okanogan","53047","Okanogan","48.3618","-120.1169","956","314","polygon","FALSE","TRUE","America/Los_Angeles","3","98856","1840022271"
"Hansville","Hansville","WA","Washington","53035","Kitsap","53035","Kitsap","47.8978","-122.5579","3809","138","polygon","FALSE","FALSE","America/Los_Angeles","3","98340 98346","1840023796"
"Farmington","Farmington","DE","Delaware","10001","Kent","10001","Kent","38.8699","-75.5790","115","610","polygon","FALSE","TRUE","America/New_York","3","19950","1840005805"
"Rising Sun-Lebanon","Rising Sun-Lebanon","DE","Delaware","10001","Kent","10001","Kent","39.0999","-75.5048","3817","412","polygon","FALSE","TRUE","America/New_York","3","19934 19962 19901","1840073664"
"Seaford","Seaford","DE","Delaware","10005","Sussex","10005","Sussex","38.6539","-75.6117","7750","571","polygon","FALSE","TRUE","America/New_York","3","19973","1840006071"
"Smyrna","Smyrna","DE","Delaware","10001","Kent","10001|10003","Kent|New Castle","39.2922","-75.6076","11584","746","polygon","FALSE","TRUE","America/New_York","3","19977","1840005820"
"Houston","Houston","DE","Delaware","10001","Kent","10001","Kent","38.9174","-75.5039","401","404","polygon","FALSE","TRUE","America/New_York","3","19954","1840005809"
"Edgemoor","Edgemoor","DE","Delaware","10003","New Castle","10003","New Castle","39.7551","-75.5070","6178","1278","polygon","FALSE","FALSE","America/New_York","3","19809 19802","1840028608"
"Slaughter Beach","Slaughter Beach","DE","Delaware","10005","Sussex","10005","Sussex","38.9143","-75.3085","234","66","polygon","FALSE","TRUE","America/New_York","3","19963","1840006084"
"Woodside","Woodside","DE","Delaware","10001","Kent","10001","Kent","39.0712","-75.5667","187","511","polygon","FALSE","TRUE","America/New_York","3","19943 19904 19980","1840005821"
"Frankford","Frankford","DE","Delaware","10005","Sussex","10005","Sussex","38.5215","-75.2342","958","507","polygon","FALSE","TRUE","America/New_York","3","19945","1840006064"
"Kent Acres","Kent Acres","DE","Delaware","10001","Kent","10001","Kent","39.1325","-75.5160","2369","1077","polygon","FALSE","FALSE","America/New_York","3","19901","1840028609"
"Laurel","Laurel","DE","Delaware","10005","Sussex","10005","Sussex","38.5696","-75.5688","4320","581","polygon","FALSE","TRUE","America/New_York","3","19956","1840006078"
"Camden","Camden","DE","Delaware","10001","Kent","10001","Kent","39.0992","-75.5570","3493","359","polygon","FALSE","TRUE","America/New_York","3","19934 19904","1840005813"
"Riverview","Riverview","DE","Delaware","10001","Kent","10001","Kent","39.0293","-75.5202","2728","291","polygon","FALSE","FALSE","America/New_York","3","19946 19943","1840028613"
"Chenequa","Chenequa","WI","Wisconsin","55133","Waukesha","55133","Waukesha","43.1229","-88.3838","593","66","polygon","FALSE","TRUE","America/Chicago","3","53058 53029","1840003016"
"Black River Falls","Black River Falls","WI","Wisconsin","55053","Jackson","55053","Jackson","44.2981","-90.8419","5490.0","328","polygon","FALSE","TRUE","America/Chicago","3","54615","1840002397"
"Almond","Almond","WI","Wisconsin","55097","Portage","55097","Portage","44.2607","-89.4087","432","159","polygon","FALSE","TRUE","America/Chicago","3","54909","1840002323"
"Whitehall","Whitehall","WI","Wisconsin","55121","Trempealeau","55121","Trempealeau","44.3705","-91.3476","1583","106","polygon","FALSE","TRUE","America/Chicago","3","54773 54747","1840002386"
"Whitewater","Whitewater","WI","Wisconsin","55127","Walworth","55127|55055","Walworth|Jefferson","42.8372","-88.7340","14374.0","634","polygon","FALSE","TRUE","America/Chicago","3","53190","1840002476"
"Greendale","Greendale","WI","Wisconsin","55079","Milwaukee","55079","Milwaukee","42.9370","-88.0018","14159","982","polygon","FALSE","TRUE","America/Chicago","3","53129","1840003038"
"Wausau","Wausau","WI","Wisconsin","55073","Marathon","55073","Marathon","44.9615","-89.6457","73933.0","774","polygon","FALSE","TRUE","America/Chicago","3","54401 54403","1840002163"
"Oconto","Oconto","WI","Wisconsin","55083","Oconto","55083","Oconto","44.8918","-87.8692","4196.0","252","polygon","FALSE","TRUE","America/Chicago","3","54153","1840001575"
"Sun Prairie","Sun Prairie","WI","Wisconsin","55025","Dane","55025","Dane","43.1827","-89.2357","32894","1033","polygon","FALSE","TRUE","America/Chicago","3","53590 53596","1840002902"
"Ashippun","Ashippun","WI","Wisconsin","55027","Dodge","55027","Dodge","43.2182","-88.5159","1030","386","polygon","FALSE","FALSE","America/Chicago","3","53066 53036 53003","1840025434"
"Milladore","Milladore","WI","Wisconsin","55141","Wood","55141","Wood","44.6057","-89.8549","267","100","polygon","FALSE","TRUE","America/Chicago","3","54454","1840002337"
"Van Dyne","Van Dyne","WI","Wisconsin","55039","Fond du Lac","55039","Fond du Lac","43.8862","-88.5012","190","93","polygon","FALSE","FALSE","America/Chicago","3","54979","1840025421"
"Patch Grove","Patch Grove","WI","Wisconsin","55043","Grant","55043","Grant","42.9406","-90.9725","197","200","polygon","FALSE","TRUE","America/Chicago","3","53817 53804","1840002980"
"Eastman","Eastman","WI","Wisconsin","55023","Crawford","55023","Crawford","43.1622","-91.0254","407","43","polygon","FALSE","TRUE","America/Chicago","3","54626","1840002887"
"Long Lake","Long Lake","WI","Wisconsin","55037","Florence","55037","Florence","45.8431","-88.6673","54","78","polygon","FALSE","FALSE","America/Chicago","3","54542","1840025289"
"Kohler","Kohler","WI","Wisconsin","55117","Sheboygan","55117","Sheboygan","43.7364","-87.7795","2081","150","polygon","FALSE","TRUE","America/Chicago","3","53081 53044","1840002620"
"Lake Ripley","Lake Ripley","WI","Wisconsin","55055","Jefferson","55055","Jefferson","43.0045","-88.9829","1642","189","polygon","FALSE","FALSE","America/Chicago","3","53523","1840004351"
"Lewis","Lewis","WI","Wisconsin","55095","Polk","55095","Polk","45.7159","-92.3965","129","33","polygon","FALSE","FALSE","America/Chicago","3","54837","1840025299"
"North Bay","North Bay","WI","Wisconsin","55101","Racine","55101","Racine","42.7644","-87.7812","238","871","polygon","FALSE","TRUE","America/Chicago","3","53402","1840002492"
"Bancroft","Bancroft","WI","Wisconsin","55097","Portage","55097","Portage","44.3093","-89.5071","492","37","polygon","FALSE","FALSE","America/Chicago","3","54921","1840024098"
"Rockdale","Rockdale","WI","Wisconsin","55025","Dane","55025","Dane","42.9717","-89.0318","216","296","polygon","FALSE","TRUE","America/Chicago","3","53523","1840002923"
"Casco","Casco","WI","Wisconsin","55061","Kewaunee","55061","Kewaunee","44.5558","-87.6198","584","338","polygon","FALSE","TRUE","America/Chicago","3","54205","1840002365"
"Nekoosa","Nekoosa","WI","Wisconsin","55141","Wood","55141","Wood","44.3135","-89.9073","2429","276","polygon","FALSE","TRUE","America/Chicago","3","54457","1840002338"
"Rockland","Rockland","WI","Wisconsin","55063","La Crosse","55063","La Crosse","43.9075","-90.9165","647","372","polygon","FALSE","TRUE","America/Chicago","3","54656 54653 54614","1840002580"
"Bell Center","Bell Center","WI","Wisconsin","55023","Crawford","55023","Crawford","43.2916","-90.8256","112","7","polygon","FALSE","TRUE","America/Chicago","3","54631","1840002886"
"Cadott","Cadott","WI","Wisconsin","55017","Chippewa","55017","Chippewa","44.9502","-91.1532","1428","162","polygon","FALSE","TRUE","America/Chicago","3","54727","1840002107"
"Galesville","Galesville","WI","Wisconsin","55121","Trempealeau","55121","Trempealeau","44.0839","-91.3580","1577","468","polygon","FALSE","TRUE","America/Chicago","3","54630","1840002387"
"Whitefish Bay","Whitefish Bay","WI","Wisconsin","55079","Milwaukee","55079","Milwaukee","43.1132","-87.9003","13950","2545","polygon","FALSE","TRUE","America/Chicago","2","53211 53217","1840003036"
"New Post","New Post","WI","Wisconsin","55113","Sawyer","55113","Sawyer","45.8965","-91.1930","258","4","polygon","FALSE","FALSE","America/Chicago","3","54843 54828","1840004010"
"Clam Lake","Clam Lake","WI","Wisconsin","55003","Ashland","55003","Ashland","46.1579","-90.9056","21","20","polygon","FALSE","FALSE","America/Chicago","3","54517","1840026073"
"Drummond","Drummond","WI","Wisconsin","55007","Bayfield","55007","Bayfield","46.3436","-91.2500","119","32","polygon","FALSE","FALSE","America/Chicago","3","54832","1840026068"
"Laona","Laona","WI","Wisconsin","55041","Forest","55041","Forest","45.5597","-88.6697","415","82","polygon","FALSE","FALSE","America/Chicago","3","54541","1840025285"
"Mount Hope","Mount Hope","WI","Wisconsin","55043","Grant","55043","Grant","42.9697","-90.8596","221","309","polygon","FALSE","TRUE","America/Chicago","3","53816","1840002978"
"Legend Lake","Legend Lake","WI","Wisconsin","55078","Menominee","55078","Menominee","44.8909","-88.5440","1269","29","polygon","FALSE","FALSE","America/Chicago","3","54135 54124","1840004029"
"Fitchburg","Fitchburg","WI","Wisconsin","55025","Dane","55025","Dane","42.9859","-89.4255","29485","325","polygon","FALSE","TRUE","America/Chicago","3","53575 53719 53711 53713 53744","1840002905"
"Scandinavia","Scandinavia","WI","Wisconsin","55135","Waupaca","55135","Waupaca","44.4608","-89.1460","354","155","polygon","FALSE","TRUE","America/Chicago","3","54977","1840002363"
"Barneveld","Barneveld","WI","Wisconsin","55049","Iowa","55049","Iowa","43.0117","-89.8968","1239","249","polygon","FALSE","TRUE","America/Chicago","3","53507","1840002957"
"West Bend","West Bend","WI","Wisconsin","55131","Washington","55131","Washington","43.4184","-88.1823","69577.0","809","polygon","FALSE","TRUE","America/Chicago","3","53090 53095","1840002829"
"Oregon","Oregon","WI","Wisconsin","55025","Dane","55025","Dane","42.9252","-89.3887","12448.0","923","polygon","FALSE","TRUE","America/Chicago","3","53575","1840002922"
"Cuba City","Cuba City","WI","Wisconsin","55043","Grant","55043|55065","Grant|Lafayette","42.6036","-90.4318","2043","679","polygon","FALSE","TRUE","America/Chicago","3","53807","1840002974"
"Winter","Winter","WI","Wisconsin","55113","Sawyer","55113","Sawyer","45.8221","-91.0130","300","146","polygon","FALSE","TRUE","America/Chicago","3","54896","1840001996"
"Argonne","Argonne","WI","Wisconsin","55041","Forest","55041","Forest","45.6582","-88.8777","185","128","polygon","FALSE","FALSE","America/Chicago","3","54511","1840025284"
"Turtle Lake","Turtle Lake","WI","Wisconsin","55005","Barron","55005|55095","Barron|Polk","45.3934","-92.1451","1011","136","polygon","FALSE","TRUE","America/Chicago","3","54889","1840002066"
"Hager City","Hager City","WI","Wisconsin","55093","Pierce","55093","Pierce","44.6012","-92.5336","283","56","polygon","FALSE","FALSE","America/Chicago","3","54014","1840025343"
"Suamico","Suamico","WI","Wisconsin","55009","Brown","55009","Brown","44.6352","-88.0664","12816","136","polygon","FALSE","TRUE","America/Chicago","3","54173 54313","1840000309"
"Cross Plains","Cross Plains","WI","Wisconsin","55025","Dane","55025","Dane","43.1146","-89.6475","4241","933","polygon","FALSE","TRUE","America/Chicago","3","53528","1840002911"
"Eagle Lake","Eagle Lake","WI","Wisconsin","55101","Racine","55101","Racine","42.7014","-88.1291","1149","203","polygon","FALSE","FALSE","America/Chicago","3","53139","1840004480"
"Potter","Potter","WI","Wisconsin","55015","Calumet","55015","Calumet","44.1202","-88.0991","242","184","polygon","FALSE","TRUE","America/Chicago","3","54110 54160","1840002523"
"Sandy Hook","Sandy Hook","WI","Wisconsin","55043","Grant","55043","Grant","42.5466","-90.6168","405","111","polygon","FALSE","FALSE","America/Chicago","3","53811","1840025450"
"West Salem","West Salem","WI","Wisconsin","55063","La Crosse","55063","La Crosse","43.8989","-91.0882","5026","579","polygon","FALSE","TRUE","America/Chicago","3","54669","1840002575"
"Goodman","Goodman","WI","Wisconsin","55075","Marinette","55075","Marinette","45.6231","-88.3518","237","55","polygon","FALSE","FALSE","America/Chicago","3","54125","1840026081"
"Valders","Valders","WI","Wisconsin","55071","Manitowoc","55071","Manitowoc","44.0696","-87.8859","925","248","polygon","FALSE","TRUE","America/Chicago","3","54245","1840002207"
"Hustler","Hustler","WI","Wisconsin","55057","Juneau","55057","Juneau","43.8773","-90.2658","189","104","polygon","FALSE","TRUE","America/Chicago","3","54637 54618","1840002226"
"Gratiot","Gratiot","WI","Wisconsin","55065","Lafayette","55065","Lafayette","42.5801","-90.0235","233","151","polygon","FALSE","TRUE","America/Chicago","3","53541","1840002499"
"Montello","Montello","WI","Wisconsin","55077","Marquette","55077","Marquette","43.7938","-89.3336","1445","292","polygon","FALSE","TRUE","America/Chicago","3","53949","1840002595"
"Brown Deer","Brown Deer","WI","Wisconsin","55079","Milwaukee","55079","Milwaukee","43.1743","-87.9750","11964","1050","polygon","FALSE","TRUE","America/Chicago","3","53209 53223","1840003041"
"Oliver","Oliver","WI","Wisconsin","55031","Douglas","55031","Douglas","46.6493","-92.1883","410","76","polygon","FALSE","TRUE","America/Chicago","3","54880","1840003911"
"Sobieski","Sobieski","WI","Wisconsin","55083","Oconto","55083","Oconto","44.7226","-88.0659","366","112","polygon","FALSE","FALSE","America/Chicago","3","54171 54141","1840025314"
"Eureka","Eureka","WI","Wisconsin","55139","Winnebago","55139","Winnebago","44.0073","-88.8426","560","211","polygon","FALSE","FALSE","America/Chicago","3","54963 54934","1840025389"
"Darien","Darien","WI","Wisconsin","55127","Walworth","55127","Walworth","42.6007","-88.7129","1594","477","polygon","FALSE","TRUE","America/Chicago","3","53114","1840002482"
"Yuba","Yuba","WI","Wisconsin","55103","Richland","55103","Richland","43.5364","-90.4267","69","87","polygon","FALSE","TRUE","America/Chicago","3","54634","1840002816"
"La Farge","La Farge","WI","Wisconsin","55123","Vernon","55123","Vernon","43.5782","-90.6381","763","292","polygon","FALSE","TRUE","America/Chicago","3","54639","1840002692"
"Gresham","Gresham","WI","Wisconsin","55115","Shawano","55115","Shawano","44.8478","-88.7856","566","191","polygon","FALSE","TRUE","America/Chicago","3","54128","1840002260"
"Clintonville","Clintonville","WI","Wisconsin","55135","Waupaca","55135","Waupaca","44.6221","-88.7513","4285.0","378","polygon","FALSE","TRUE","America/Chicago","3","54929","1840002358"
"Taylor","Taylor","WI","Wisconsin","55053","Jackson","55053","Jackson","44.3217","-91.1206","470","248","polygon","FALSE","TRUE","America/Chicago","3","54659","1840002394"
"Fond du Lac","Fond du Lac","WI","Wisconsin","55039","Fond du Lac","55039","Fond du Lac","43.7718","-88.4397","54629.0","867","polygon","FALSE","TRUE","America/Chicago","3","54937 54935 54936","1840002603"
"Somers","Somers","WI","Wisconsin","55059","Kenosha","55059","Kenosha","42.6411","-87.8919","8289","126","polygon","FALSE","TRUE","America/Chicago","3","53144 53140 53171","1840038024"
"Potter Lake","Potter Lake","WI","Wisconsin","55127","Walworth","55127","Walworth","42.8196","-88.3487","1174","430","polygon","FALSE","FALSE","America/Chicago","3","53120","1840004477"
"Dalton","Dalton","WI","Wisconsin","55047","Green Lake","55047","Green Lake","43.6562","-89.2069","239","205","polygon","FALSE","FALSE","America/Chicago","3","53926","1840025401"
"Random Lake","Random Lake","WI","Wisconsin","55117","Sheboygan","55117","Sheboygan","43.5541","-87.9548","1573","426","polygon","FALSE","TRUE","America/Chicago","3","53075","1840002627"
"Blue Mounds","Blue Mounds","WI","Wisconsin","55025","Dane","55025","Dane","43.0180","-89.8265","971","425","polygon","FALSE","TRUE","America/Chicago","3","53517","1840002908"
"Chain O' Lakes","Chain O' Lakes","WI","Wisconsin","55135","Waupaca","55135","Waupaca","44.3318","-89.1671","967","109","polygon","FALSE","FALSE","America/Chicago","3","54981","1840023954"
"Rosendale","Rosendale","WI","Wisconsin","55039","Fond du Lac","55039","Fond du Lac","43.8080","-88.6731","1036","324","polygon","FALSE","TRUE","America/Chicago","3","54974","1840002610"
"Sayner","Sayner","WI","Wisconsin","55125","Vilas","55125","Vilas","45.9910","-89.5332","179","37","polygon","FALSE","FALSE","America/Chicago","3","54560","1840025277"
"Navarino","Navarino","WI","Wisconsin","55115","Shawano","55115","Shawano","44.6108","-88.4936","162","57","polygon","FALSE","FALSE","America/Chicago","3","54107","1840023922"
"Mount Horeb","Mount Horeb","WI","Wisconsin","55025","Dane","55025","Dane","43.0060","-89.7317","7407.0","888","polygon","FALSE","TRUE","America/Chicago","3","53572","1840002921"
"St. Francis","St. Francis","WI","Wisconsin","55079","Milwaukee","55079","Milwaukee","42.9716","-87.8729","9442","1418","polygon","FALSE","TRUE","America/Chicago","3","53235","1840003049"
"Pardeeville","Pardeeville","WI","Wisconsin","55021","Columbia","55021","Columbia","43.5359","-89.3010","2067","415","polygon","FALSE","TRUE","America/Chicago","3","53954","1840002711"
"Belleville","Belleville","WI","Wisconsin","55025","Dane","55025|55045","Dane|Green","42.8643","-89.5402","2425","590","polygon","FALSE","TRUE","America/Chicago","3","53508","1840002906"
"Arlington","Arlington","WI","Wisconsin","55021","Columbia","55021","Columbia","43.3350","-89.3725","814","305","polygon","FALSE","TRUE","America/Chicago","3","53911","1840002702"
"Buffalo City","Buffalo City","WI","Wisconsin","55011","Buffalo","55011","Buffalo","44.2237","-91.8654","971","177","polygon","FALSE","TRUE","America/Chicago","3","54622","1840002377"
"Glenwood City","Glenwood City","WI","Wisconsin","55109","St. Croix","55109","St. Croix","45.0570","-92.1714","1213","188","polygon","FALSE","TRUE","America/Chicago","3","54013","1840002133"
"Green Lake","Green Lake","WI","Wisconsin","55047","Green Lake","55047","Green Lake","43.8441","-88.9560","926","193","polygon","FALSE","TRUE","America/Chicago","3","54941","1840002588"
"Downsville","Downsville","WI","Wisconsin","55033","Dunn","55033","Dunn","44.7708","-91.9260","106","54","polygon","FALSE","FALSE","America/Chicago","3","54751 54735","1840025322"
"Strum","Strum","WI","Wisconsin","55121","Trempealeau","55121","Trempealeau","44.5532","-91.3876","1097","351","polygon","FALSE","TRUE","America/Chicago","3","54770","1840002384"
"Grand Marsh","Grand Marsh","WI","Wisconsin","55001","Adams","55001","Adams","43.8852","-89.7072","159","50","polygon","FALSE","FALSE","America/Chicago","3","53936","1840025382"
"Ixonia","Ixonia","WI","Wisconsin","55055","Jefferson","55055","Jefferson","43.1396","-88.5963","1931","204","polygon","FALSE","FALSE","America/Chicago","3","53036","1840004349"
"Wheeler","Wheeler","WI","Wisconsin","55033","Dunn","55033","Dunn","45.0441","-91.9037","336","158","polygon","FALSE","TRUE","America/Chicago","3","54772","1840002141"
"Crandon","Crandon","WI","Wisconsin","55041","Forest","55041","Forest","45.5686","-88.8973","1844","136","polygon","FALSE","TRUE","America/Chicago","3","54520","1840002005"
"Rio","Rio","WI","Wisconsin","55021","Columbia","55021","Columbia","43.4497","-89.2388","1042","321","polygon","FALSE","TRUE","America/Chicago","3","53960","1840002714"
"Viola","Viola","WI","Wisconsin","55103","Richland","55103|55123","Richland|Vernon","43.5070","-90.6735","676","262","polygon","FALSE","TRUE","America/Chicago","3","54664","1840002815"
"Sheboygan","Sheboygan","WI","Wisconsin","55117","Sheboygan","55117","Sheboygan","43.7403","-87.7316","69920.0","1192","polygon","FALSE","TRUE","America/Chicago","3","53083 53081","1840002628"
"Plainfield","Plainfield","WI","Wisconsin","55137","Waushara","55137","Waushara","44.2175","-89.4970","837","207","polygon","FALSE","TRUE","America/Chicago","3","54966","1840002240"
"La Crosse","La Crosse","WI","Wisconsin","55063","La Crosse","55063","La Crosse","43.8241","-91.2268","101886.0","921","polygon","FALSE","TRUE","America/Chicago","2","54601 54603 54602","1840002577"
"Clinton","Clinton","WI","Wisconsin","55105","Rock","55105","Rock","42.5574","-88.8679","2127","573","polygon","FALSE","TRUE","America/Chicago","3","53525","1840002472"
"Lake Arrowhead","Lake Arrowhead","WI","Wisconsin","55001","Adams","55001","Adams","44.2030","-89.8388","826","63","polygon","FALSE","TRUE","America/Chicago","3","54457","1840042463"
"Chelsea","Chelsea","WI","Wisconsin","55119","Taylor","55119","Taylor","45.2926","-90.3054","101","84","polygon","FALSE","FALSE","America/Chicago","3","54451","1840025307"
"Hayward","Hayward","WI","Wisconsin","55113","Sawyer","55113","Sawyer","46.0094","-91.4826","2597.0","281","polygon","FALSE","TRUE","America/Chicago","3","54843","1840001997"
"Fontana-on-Geneva Lake","Fontana-on-Geneva Lake","WI","Wisconsin","55127","Walworth","55127","Walworth","42.5453","-88.5701","1713","196","polygon","FALSE","TRUE","America/Chicago","3","53125","1840033457"
"Mount Sterling","Mount Sterling","WI","Wisconsin","55023","Crawford","55023","Crawford","43.3163","-90.9292","200","54","polygon","FALSE","TRUE","America/Chicago","3","54631 54645","1840002889"
"Minocqua","Minocqua","WI","Wisconsin","55085","Oneida","55085","Oneida","45.8788","-89.7032","319","189","polygon","FALSE","FALSE","America/Chicago","3","54548","1840025293"
"Shell Lake","Shell Lake","WI","Wisconsin","55129","Washburn","55129","Washburn","45.7322","-91.9033","1328","87","polygon","FALSE","TRUE","America/Chicago","3","54871","1840002001"
"Springbrook","Springbrook","WI","Wisconsin","55129","Washburn","55129","Washburn","45.9468","-91.6890","76","41","polygon","FALSE","FALSE","America/Chicago","3","54875","1840038028"
"Oshkosh","Oshkosh","WI","Wisconsin","55139","Winnebago","55139","Winnebago","44.0228","-88.5617","75154.0","960","polygon","FALSE","TRUE","America/Chicago","3","54985 54904 54901 54902 54903 54906","1840002246"
"Sheboygan Falls","Sheboygan Falls","WI","Wisconsin","55117","Sheboygan","55117","Sheboygan","43.7290","-87.8266","7928","567","polygon","FALSE","TRUE","America/Chicago","3","53085","1840002629"
"Westby","Westby","WI","Wisconsin","55123","Vernon","55123","Vernon","43.6530","-90.8584","2248","323","polygon","FALSE","TRUE","America/Chicago","3","54667","1840002689"
"Butte des Morts","Butte des Morts","WI","Wisconsin","55139","Winnebago","55139","Winnebago","44.1059","-88.6564","873","273","polygon","FALSE","FALSE","America/Chicago","3","54927 54986 54904","1840025388"
"Deer Park","Deer Park","WI","Wisconsin","55109","St. Croix","55109","St. Croix","45.1887","-92.3879","216","90","polygon","FALSE","TRUE","America/Chicago","3","54007","1840002137"
"Schofield","Schofield","WI","Wisconsin","55073","Marathon","55073","Marathon","44.9150","-89.6153","2186","411","polygon","FALSE","TRUE","America/Chicago","3","54476","1840002173"
"Waupun","Waupun","WI","Wisconsin","55039","Fond du Lac","55039|55027","Fond du Lac|Dodge","43.6315","-88.7379","11302.0","937","polygon","FALSE","TRUE","America/Chicago","3","53963","1840002600"
"Nelsonville","Nelsonville","WI","Wisconsin","55097","Portage","55097","Portage","44.4937","-89.3091","154","57","polygon","FALSE","TRUE","America/Chicago","3","54407 54458","1840002326"
"Bayfield","Bayfield","WI","Wisconsin","55007","Bayfield","55007","Bayfield","46.8141","-90.8226","473","212","polygon","FALSE","TRUE","America/Chicago","3","54814","1840003914"
"Walworth","Walworth","WI","Wisconsin","55127","Walworth","55127","Walworth","42.5305","-88.5940","4427.0","631","polygon","FALSE","TRUE","America/Chicago","3","53184","1840002475"
"Clear Lake","Clear Lake","WI","Wisconsin","55095","Polk","55095","Polk","45.2492","-92.2675","1070","158","polygon","FALSE","TRUE","America/Chicago","3","54005","1840002053"
"Powers Lake","Powers Lake","WI","Wisconsin","55059","Kenosha","55059","Kenosha","42.5395","-88.2935","1069","206","polygon","FALSE","FALSE","America/Chicago","3","53128 53159","1840004537"
"Shawano","Shawano","WI","Wisconsin","55115","Shawano","55115","Shawano","44.7749","-88.5844","10158.0","523","polygon","FALSE","TRUE","America/Chicago","3","54166","1840002266"
"Marshfield","Marshfield","WI","Wisconsin","55141","Wood","55141|55073","Wood|Marathon","44.6627","-90.1728","18697.0","520","polygon","FALSE","TRUE","America/Chicago","3","54449 54404 54472","1840002336"
"Birchwood","Birchwood","WI","Wisconsin","55129","Washburn","55129","Washburn","45.6577","-91.5507","430","153","polygon","FALSE","TRUE","America/Chicago","3","54817","1840002003"
"St. Nazianz","St. Nazianz","WI","Wisconsin","55071","Manitowoc","55071","Manitowoc","44.0067","-87.9246","755","367","polygon","FALSE","TRUE","America/Chicago","3","54232","1840002217"
"Hawkins","Hawkins","WI","Wisconsin","55107","Rusk","55107","Rusk","45.5114","-90.7148","285","49","polygon","FALSE","TRUE","America/Chicago","3","54530","1840002080"
"Waunakee","Waunakee","WI","Wisconsin","55025","Dane","55025","Dane","43.1833","-89.4433","13755","785","polygon","FALSE","TRUE","America/Chicago","3","53597","1840002904"
"Windsor","Windsor","WI","Wisconsin","55025","Dane","55025","Dane","43.2406","-89.2952","7057","97","polygon","FALSE","TRUE","America/Chicago","3","53598 53590 53571 53532","1840006867"
"Almena","Almena","WI","Wisconsin","55005","Barron","55005","Barron","45.4149","-92.0384","651","222","polygon","FALSE","TRUE","America/Chicago","3","54805","1840002068"
"Houlton","Houlton","WI","Wisconsin","55109","St. Croix","55109","St. Croix","45.0607","-92.7904","135","36","polygon","FALSE","FALSE","America/Chicago","3","54016 54082","1840025321"
"Lake Lorraine","Lake Lorraine","WI","Wisconsin","55127","Walworth","55127","Walworth","42.7330","-88.7374","230","79","polygon","FALSE","TRUE","America/Chicago","3","53190 53115","1840042466"
"South Wayne","South Wayne","WI","Wisconsin","55065","Lafayette","55065","Lafayette","42.5671","-89.8763","478","215","polygon","FALSE","TRUE","America/Chicago","3","53587","1840002498"
"Kingston","Kingston","WI","Wisconsin","55047","Green Lake","55047","Green Lake","43.6935","-89.1304","319","94","polygon","FALSE","TRUE","America/Chicago","3","53939 53946 53926","1840002589"
"Kronenwetter","Kronenwetter","WI","Wisconsin","55073","Marathon","55073","Marathon","44.8164","-89.5807","7736","57","polygon","FALSE","TRUE","America/Chicago","3","54455","1840038099"
"Arbovale","Arbovale","WV","West Virginia","54075","Pocahontas","54075","Pocahontas","38.4353","-79.8116","137","90","polygon","FALSE","FALSE","America/New_York","3","24915","1840038214"
"Roderfield","Roderfield","WV","West Virginia","54047","McDowell","54047","McDowell","37.4501","-81.7029","38","55","polygon","FALSE","FALSE","America/New_York","3","24844 24881","1840025736"
"Maybeury","Maybeury","WV","West Virginia","54047","McDowell","54047","McDowell","37.3675","-81.3572","90","20","polygon","FALSE","FALSE","America/New_York","3","24861","1840025734"
"Hamlin","Hamlin","WV","West Virginia","54043","Lincoln","54043","Lincoln","38.2805","-82.1086","1072","693","polygon","FALSE","TRUE","America/New_York","3","25523","1840006271"
"Elizabeth","Elizabeth","WV","West Virginia","54105","Wirt","54105","Wirt","39.0617","-81.3976","827","675","polygon","FALSE","TRUE","America/New_York","3","26143","1840005929"
"Fairmont","Fairmont","WV","West Virginia","54049","Marion","54049","Marion","39.4768","-80.1491","32988.0","830","polygon","FALSE","TRUE","America/New_York","3","26554 26555","1840005732"
"Salt Rock","Salt Rock","WV","West Virginia","54011","Cabell","54011","Cabell","38.3243","-82.2172","553","69","polygon","FALSE","FALSE","America/New_York","3","25559","1840025663"
"Danville","Danville","WV","West Virginia","54005","Boone","54005","Boone","38.0808","-81.8342","629","226","polygon","FALSE","TRUE","America/New_York","3","25053","1840006306"
"Enterprise","Enterprise","WV","West Virginia","54033","Harrison","54033","Harrison","39.4197","-80.2834","802","105","polygon","FALSE","FALSE","America/New_York","3","26568 26431","1840005764"
"Bluefield","Bluefield","WV","West Virginia","54055","Mercer","54055","Mercer","37.2608","-81.2143","41653.0","421","polygon","FALSE","TRUE","America/New_York","3","24701","1840006401"
"Prince","Prince","WV","West Virginia","54019","Fayette","54019","Fayette","37.8593","-81.0722","81","17","polygon","FALSE","FALSE","America/New_York","3","25907","1840025684"
"Brandonville","Brandonville","WV","West Virginia","54077","Preston","54077","Preston","39.6671","-79.6277","105","105","polygon","FALSE","TRUE","America/New_York","3","26525","1840005653"
"Matewan","Matewan","WV","West Virginia","54059","Mingo","54059","Mingo","37.6259","-82.1700","442","308","polygon","FALSE","TRUE","America/New_York","3","25688 25678","1840006362"
"Cross Lanes","Cross Lanes","WV","West Virginia","54039","Kanawha","54039","Kanawha","38.4351","-81.7706","9835","595","polygon","FALSE","FALSE","America/New_York","3","25313 25356","1840006190"
"Brandywine","Brandywine","WV","West Virginia","54071","Pendleton","54071","Pendleton","38.6219","-79.2413","110","86","polygon","FALSE","FALSE","America/New_York","3","26802","1840025643"
"Bath","Bath","WV","West Virginia","54065","Morgan","54065","Morgan","39.6247","-78.2275","602","692","polygon","FALSE","TRUE","America/New_York","3","25411","1840073280"
"Deep Water","Deep Water","WV","West Virginia","54019","Fayette","54019","Fayette","38.1217","-81.2528","310","135","polygon","FALSE","FALSE","America/New_York","3","25057","1840038236"
"Carpendale","Carpendale","WV","West Virginia","54057","Mineral","54057","Mineral","39.6278","-78.7896","928","273","polygon","FALSE","TRUE","America/New_York","3","26753","1840005724"
"Switzer","Switzer","WV","West Virginia","54045","Logan","54045","Logan","37.7879","-81.9865","533","87","polygon","FALSE","FALSE","America/New_York","3","25647","1840006335"
"Hinton","Hinton","WV","West Virginia","54089","Summers","54089","Summers","37.6652","-80.8828","2410.0","423","polygon","FALSE","TRUE","America/New_York","3","25951","1840006368"
"Kopperston","Kopperston","WV","West Virginia","54109","Wyoming","54109","Wyoming","37.7502","-81.5764","488","98","polygon","FALSE","FALSE","America/New_York","3","24870 24854","1840025721"
"Comfort","Comfort","WV","West Virginia","54005","Boone","54005","Boone","38.1317","-81.6102","259","99","polygon","FALSE","FALSE","America/New_York","3","25049","1840025686"
"Cairo","Cairo","WV","West Virginia","54085","Ritchie","54085","Ritchie","39.2067","-81.1544","262","214","polygon","FALSE","TRUE","America/New_York","3","26337","1840005794"
"Thurmond","Thurmond","WV","West Virginia","54019","Fayette","54019","Fayette","37.9610","-81.0796","5","20","polygon","FALSE","TRUE","America/New_York","3","25936","1840006302"
"Milton","Milton","WV","West Virginia","54011","Cabell","54011","Cabell","38.4353","-82.1376","2612","659","polygon","FALSE","TRUE","America/New_York","3","25541","1840006212"
"Martinsburg","Martinsburg","WV","West Virginia","54003","Berkeley","54003","Berkeley","39.4582","-77.9776","17404","1013","polygon","FALSE","TRUE","America/New_York","3","25403 25401 25404 25402","1840005742"
"Shinnston","Shinnston","WV","West Virginia","54033","Harrison","54033","Harrison","39.3923","-80.2989","2129","491","polygon","FALSE","TRUE","America/New_York","3","26431","1840005769"
"Falling Spring","Falling Spring","WV","West Virginia","54025","Greenbrier","54025","Greenbrier","37.9926","-80.3576","207","155","polygon","FALSE","TRUE","America/New_York","3","24966","1840006284"
"Washington","Washington","WV","West Virginia","54107","Wood","54107","Wood","39.2422","-81.6679","849","77","polygon","FALSE","FALSE","America/New_York","3","26181","1840005785"
"Rainelle","Rainelle","WV","West Virginia","54025","Greenbrier","54025","Greenbrier","37.9678","-80.7717","1482","514","polygon","FALSE","TRUE","America/New_York","3","25962","1840006290"
"Fairlea","Fairlea","WV","West Virginia","54025","Greenbrier","54025","Greenbrier","37.7756","-80.4582","1743","179","polygon","FALSE","FALSE","America/New_York","3","24901 24970 24902","1840038243"
"Vivian","Vivian","WV","West Virginia","54047","McDowell","54047","McDowell","37.4172","-81.4923","76","80","polygon","FALSE","FALSE","America/New_York","3","24853","1840038297"
"Mallory","Mallory","WV","West Virginia","54045","Logan","54045","Logan","37.7274","-81.8206","1142","33","polygon","FALSE","FALSE","America/New_York","3","25617 25634","1840006334"
"Crumpler","Crumpler","WV","West Virginia","54047","McDowell","54047","McDowell","37.4262","-81.3313","148","38","polygon","FALSE","FALSE","America/New_York","3","24868","1840025732"
"Marlinton","Marlinton","WV","West Virginia","54075","Pocahontas","54075","Pocahontas","38.2247","-80.0906","994","163","polygon","FALSE","TRUE","America/New_York","3","24954","1840006156"
"Hico","Hico","WV","West Virginia","54019","Fayette","54019","Fayette","38.1166","-81.0112","113","8","polygon","FALSE","FALSE","America/New_York","3","25854","1840025680"
"Rossmore","Rossmore","WV","West Virginia","54045","Logan","54045","Logan","37.8050","-81.9923","674","417","polygon","FALSE","FALSE","America/New_York","3","25601","1840038170"
"Henderson","Henderson","WV","West Virginia","54053","Mason","54053","Mason","38.8304","-82.1360","263","242","polygon","FALSE","TRUE","America/New_York","3","25106","1840006047"
"Marmet","Marmet","WV","West Virginia","54039","Kanawha","54039","Kanawha","38.2458","-81.5711","1410","427","polygon","FALSE","TRUE","America/New_York","3","25315","1840006198"
"Powellton","Powellton","WV","West Virginia","54019","Fayette","54019","Fayette","38.0941","-81.3220","548","39","polygon","FALSE","FALSE","America/New_York","3","25118 25161","1840006292"
"Piedmont","Piedmont","WV","West Virginia","54057","Mineral","54057","Mineral","39.4778","-79.0466","813","823","polygon","FALSE","TRUE","America/New_York","3","26750","1840005726"
"Bartley","Bartley","WV","West Virginia","54047","McDowell","54047","McDowell","37.3373","-81.7334","122","41","polygon","FALSE","FALSE","America/New_York","3","24813","1840025730"
"Thomas","Thomas","WV","West Virginia","54093","Tucker","54093","Tucker","39.1458","-79.4958","556","48","polygon","FALSE","TRUE","America/New_York","3","26292 26260","1840005889"
"Brenton","Brenton","WV","West Virginia","54109","Wyoming","54109","Wyoming","37.6004","-81.6350","284","174","polygon","FALSE","FALSE","America/New_York","3","24818","1840038221"
"Bethany","Bethany","WV","West Virginia","54009","Brooke","54009","Brooke","40.2053","-80.5629","888","467","polygon","FALSE","TRUE","America/New_York","3","26032","1840005479"
"Leon","Leon","WV","West Virginia","54053","Mason","54053","Mason","38.7471","-81.9555","150","180","polygon","FALSE","TRUE","America/New_York","3","25123","1840006049"
"Kistler","Kistler","WV","West Virginia","54045","Logan","54045","Logan","37.7656","-81.8578","320","83","polygon","FALSE","FALSE","America/New_York","3","25628","1840025703"
"Bancroft","Bancroft","WV","West Virginia","54079","Putnam","54079","Putnam","38.5107","-81.8418","600","1667","polygon","FALSE","TRUE","America/New_York","3","25011","1840006181"
"Clearview","Clearview","WV","West Virginia","54069","Ohio","54069","Ohio","40.1399","-80.6899","497","474","polygon","FALSE","TRUE","America/New_York","3","26003","1840005515"
"Chauncey","Chauncey","WV","West Virginia","54045","Logan","54045","Logan","37.7652","-81.9834","320","85","polygon","FALSE","FALSE","America/New_York","3","25647 25652 25638 25612","1840038227"
"Rupert","Rupert","WV","West Virginia","54025","Greenbrier","54025","Greenbrier","37.9649","-80.6870","919","462","polygon","FALSE","TRUE","America/New_York","3","25984","1840006291"
"Friendly","Friendly","WV","West Virginia","54095","Tyler","54095","Tyler","39.5136","-81.0619","124","474","polygon","FALSE","TRUE","America/New_York","3","26146","1840005745"
"Ghent","Ghent","WV","West Virginia","54081","Raleigh","54081","Raleigh","37.6221","-81.1057","515","155","polygon","FALSE","FALSE","America/New_York","3","25843","1840025709"
"Lavalette","Lavalette","WV","West Virginia","54099","Wayne","54099","Wayne","38.3224","-82.4479","1215","179","polygon","FALSE","FALSE","America/New_York","3","25535","1840025674"
"Itmann","Itmann","WV","West Virginia","54109","Wyoming","54109","Wyoming","37.5734","-81.4146","370","144","polygon","FALSE","FALSE","America/New_York","3","24847","1840038256"
"Culloden","Culloden","WV","West Virginia","54011","Cabell","54011|54079","Cabell|Putnam","38.4159","-82.0722","3256","302","polygon","FALSE","FALSE","America/New_York","3","25510","1840006210"
"Nitro","Nitro","WV","West Virginia","54039","Kanawha","54039|54079","Kanawha|Putnam","38.4119","-81.8194","6561","483","polygon","FALSE","TRUE","America/New_York","3","25143 25064","1840006199"
"Stollings","Stollings","WV","West Virginia","54045","Logan","54045","Logan","37.8409","-81.9624","444","476","polygon","FALSE","FALSE","America/New_York","3","25646 25601","1840038179"
"Ceredo","Ceredo","WV","West Virginia","54099","Wayne","54099","Wayne","38.3951","-82.5540","1352","350","polygon","FALSE","TRUE","America/New_York","3","25704 25507","1840006262"
"Amherstdale","Amherstdale","WV","West Virginia","54045","Logan","54045","Logan","37.7799","-81.8183","503","64","polygon","FALSE","FALSE","America/New_York","3","25606 25607","1840025700"
"Alum Creek","Alum Creek","WV","West Virginia","54043","Lincoln","54043|54039","Lincoln|Kanawha","38.2876","-81.8330","1767","66","polygon","FALSE","FALSE","America/New_York","3","25003","1840006188"
"Hooverson Heights","Hooverson Heights","WV","West Virginia","54009","Brooke","54009","Brooke","40.3190","-80.5825","2578","440","polygon","FALSE","FALSE","America/New_York","3","26037","1840005476"
"Elkins","Elkins","WV","West Virginia","54083","Randolph","54083","Randolph","38.9237","-79.8541","10988.0","750","polygon","FALSE","TRUE","America/New_York","3","26241","1840005991"
"McConnell","McConnell","WV","West Virginia","54045","Logan","54045","Logan","37.8282","-81.9652","556","683","polygon","FALSE","FALSE","America/New_York","3","25646","1840038271"
"Valley Head","Valley Head","WV","West Virginia","54083","Randolph","54083","Randolph","38.5472","-80.0320","316","125","polygon","FALSE","FALSE","America/New_York","3","26294","1840025636"
"Coal City","Coal City","WV","West Virginia","54081","Raleigh","54081","Raleigh","37.6776","-81.2180","1823","111","polygon","FALSE","FALSE","America/New_York","3","25813 25823","1840038232"
"Weston","Weston","WV","West Virginia","54041","Lewis","54041","Lewis","39.0390","-80.4616","4904.0","788","polygon","FALSE","TRUE","America/New_York","3","26452","1840005930"
"Montrose","Montrose","WV","West Virginia","54083","Randolph","54083","Randolph","39.0674","-79.8144","154","94","polygon","FALSE","TRUE","America/New_York","3","26283","1840005995"
"Waikane","Waikane","HI","Hawaii","15003","Honolulu","15003","Honolulu","21.4921","-157.8721","477","27","polygon","FALSE","FALSE","Pacific/Honolulu","3","96744","1840029555"
"Keaau","Keaau","HI","Hawaii","15001","Hawaii","15001","Hawaii","19.6156","-155.0372","2627","393","polygon","FALSE","FALSE","Pacific/Honolulu","3","96749","1840029503"
"Ewa Villages","Ewa Villages","HI","Hawaii","15003","Honolulu","15003","Honolulu","21.3418","-158.0390","8087","2772","polygon","FALSE","FALSE","Pacific/Honolulu","2","96706","1840029578"
"Pearl City","Pearl City","HI","Hawaii","15003","Honolulu","15003","Honolulu","21.4031","-157.9566","46259","1960","polygon","FALSE","FALSE","Pacific/Honolulu","3","96701 96782","1840023251"
"Haiku-Pauwela","Haiku-Pauwela","HI","Hawaii","15009","Maui","15009","Maui","20.9156","-156.3022","7420","181","polygon","FALSE","TRUE","Pacific/Honolulu","3","96708","1840074990"
"Honomu","Honomu","HI","Hawaii","15001","Hawaii","15001","Hawaii","19.8695","-155.1124","433","366","polygon","FALSE","FALSE","Pacific/Honolulu","3","96728","1840023197"
"Honokaa","Honokaa","HI","Hawaii","15001","Hawaii","15001","Hawaii","20.0746","-155.4656","2299","701","polygon","FALSE","FALSE","Pacific/Honolulu","3","96727","1840029483"
"Kaunakakai","Kaunakakai","HI","Hawaii","15009","Maui","15009","Maui","21.0905","-156.9981","3494","105","polygon","FALSE","FALSE","Pacific/Honolulu","3","96748","1840023226"
"Kapaa","Kapaa","HI","Hawaii","15007","Kauai","15007","Kauai","22.0910","-159.3520","10505","404","polygon","FALSE","FALSE","Pacific/Honolulu","3","96746","1840029499"
"Fern Forest","Fern Forest","HI","Hawaii","15001","Hawaii","15001","Hawaii","19.4648","-155.1324","838","25","polygon","FALSE","FALSE","Pacific/Honolulu","3","96771","1840029571"
"Kukuihaele","Kukuihaele","HI","Hawaii","15001","Hawaii","15001","Hawaii","20.1195","-155.5654","335","75","polygon","FALSE","FALSE","Pacific/Honolulu","3","96727","1840029512"
"Ewa Beach","Ewa Beach","HI","Hawaii","15003","Honolulu","15003","Honolulu","21.3181","-158.0073","15047","4876","polygon","FALSE","FALSE","Pacific/Honolulu","2","96706 96709","1840029470"
"Kaanapali","Kaanapali","HI","Hawaii","15009","Maui","15009","Maui","20.9276","-156.6795","968","75","polygon","FALSE","FALSE","Pacific/Honolulu","3","96761 96767","1840029488"
"Waikele","Waikele","HI","Hawaii","15003","Honolulu","15003","Honolulu","21.4025","-158.0058","7446","2612","polygon","FALSE","TRUE","Pacific/Honolulu","2","96797","1840039259"
"Hawaiian Ocean View","Hawaiian Ocean View","HI","Hawaii","15001","Hawaii","15001","Hawaii","19.0959","-155.7749","4726","50","polygon","FALSE","FALSE","Pacific/Honolulu","3","96737","1840029581"
"Hana","Hana","HI","Hawaii","15009","Maui","15009","Maui","20.7720","-156.0107","1047","38","polygon","FALSE","FALSE","Pacific/Honolulu","3","96713","1840029476"
"Kihei","Kihei","HI","Hawaii","15009","Maui","15009","Maui","20.7653","-156.4454","22220","916","polygon","FALSE","FALSE","Pacific/Honolulu","3","96753","1840029507"
"Pukalani","Pukalani","HI","Hawaii","15009","Maui","15009","Maui","20.8329","-156.3415","8340","853","polygon","FALSE","FALSE","Pacific/Honolulu","3","96768 96788","1840029545"
"Mililani Mauka","Mililani Mauka","HI","Hawaii","15003","Honolulu","15003","Honolulu","21.4756","-157.9947","20393","1979","polygon","FALSE","TRUE","Pacific/Honolulu","3","96789","1840039224"
"Holualoa","Holualoa","HI","Hawaii","15001","Hawaii","15001","Hawaii","19.6238","-155.9269","8732","255","polygon","FALSE","FALSE","Pacific/Honolulu","3","96725 96740","1840029482"
"Kailua","Kailua","HI","Hawaii","15003","Honolulu","15003","Honolulu","21.3920","-157.7396","38088","1893","polygon","FALSE","FALSE","Pacific/Honolulu","3","96734","1840023244"
"Laupahoehoe","Laupahoehoe","HI","Hawaii","15001","Hawaii","15001","Hawaii","19.9749","-155.2380","541","98","polygon","FALSE","FALSE","Pacific/Honolulu","3","96764","1840029517"
"Lawai","Lawai","HI","Hawaii","15007","Kauai","15007","Kauai","21.9203","-159.5006","1985","188","polygon","FALSE","FALSE","Pacific/Honolulu","3","96765 96756 96741","1840029518"
"Ainaloa","Ainaloa","HI","Hawaii","15001","Hawaii","15001","Hawaii","19.5214","-154.9944","3099","606","polygon","FALSE","FALSE","Pacific/Honolulu","3","96778","1840029568"
"Waikoloa Village","Waikoloa Village","HI","Hawaii","15001","Hawaii","15001","Hawaii","19.9285","-155.8185","6014","130","polygon","FALSE","FALSE","Pacific/Honolulu","3","96738","1840029587"
"Micanopy","Micanopy","FL","Florida","12001","Alachua","12001","Alachua","29.5060","-82.2806","631","235","polygon","FALSE","TRUE","America/New_York","3","32667","1840017215"
"Surfside","Surfside","FL","Florida","12086","Miami-Dade","12086","Miami-Dade","25.8787","-80.1250","5841","4046","polygon","FALSE","TRUE","America/New_York","2","33154","1840017278"
"Parkland","Parkland","FL","Florida","12011","Broward","12011","Broward","26.3218","-80.2533","32202","994","polygon","FALSE","TRUE","America/New_York","3","33076 33067","1840015140"
"Munson","Munson","FL","Florida","12113","Santa Rosa","12113","Santa Rosa","30.8418","-86.8870","169","2","polygon","FALSE","FALSE","America/Chicago","3","32570","1840025115"
"Brownsville","Brownsville","FL","Florida","12086","Miami-Dade","12086","Miami-Dade","25.8216","-80.2417","16615","2814","polygon","FALSE","FALSE","America/New_York","2","33142 33188","1840029024"
"Live Oak","Live Oak","FL","Florida","12121","Suwannee","12121","Suwannee","30.2956","-82.9847","7040.0","349","polygon","FALSE","TRUE","America/New_York","3","32064","1840015929"
"Wewahitchka","Wewahitchka","FL","Florida","12045","Gulf","12045","Gulf","30.1148","-85.1935","2091","120","polygon","FALSE","TRUE","America/Chicago","3","32465","1840015938"
"Cooper City","Cooper City","FL","Florida","12011","Broward","12011","Broward","26.0463","-80.2862","35732","1716","polygon","FALSE","TRUE","America/New_York","3","33024 33026 33330 33328","1840015133"
"Campbellton","Campbellton","FL","Florida","12063","Jackson","12063","Jackson","30.9505","-85.4025","224","33","polygon","FALSE","TRUE","America/Chicago","3","32426","1840015900"
"Lockhart","Lockhart","FL","Florida","12095","Orange","12095","Orange","28.6271","-81.4354","14027","1219","polygon","FALSE","FALSE","America/New_York","3","32703 32810 32860","1840014095"
"Lecanto","Lecanto","FL","Florida","12017","Citrus","12017","Citrus","28.8359","-82.4880","6099","87","polygon","FALSE","FALSE","America/New_York","3","34461","1840014064"
"Suncoast Estates","Suncoast Estates","FL","Florida","12071","Lee","12071","Lee","26.7123","-81.8684","4587","650","polygon","FALSE","FALSE","America/New_York","3","33917","1840029083"
"Ponce de Leon","Ponce de Leon","FL","Florida","12059","Holmes","12059","Holmes","30.7234","-85.9374","558","43","polygon","FALSE","TRUE","America/Chicago","3","32455","1840017164"
"Country Club","Country Club","FL","Florida","12086","Miami-Dade","12086","Miami-Dade","25.9407","-80.3102","49207","4552","polygon","FALSE","FALSE","America/New_York","2","33015 33017","1840029029"
"Gulfport","Gulfport","FL","Florida","12103","Pinellas","12103","Pinellas","27.7463","-82.7100","12371","1724","polygon","FALSE","TRUE","America/New_York","3","33707 33711","1840014145"
"Elfers","Elfers","FL","Florida","12101","Pasco","12101","Pasco","28.2140","-82.7230","13291","1445","polygon","FALSE","FALSE","America/New_York","3","34690 34653 34652 34680","1840013122"
"Manatee Road","Manatee Road","FL","Florida","12075","Levy","12075","Levy","29.5147","-82.9186","2925","84","polygon","FALSE","FALSE","America/New_York","3","32626 32693","1840028993"
"Virginia Gardens","Virginia Gardens","FL","Florida","12086","Miami-Dade","12086","Miami-Dade","25.8095","-80.2974","2472","3251","polygon","FALSE","TRUE","America/New_York","2","33166","1840018337"
"The Hammocks","The Hammocks","FL","Florida","12086","Miami-Dade","12086","Miami-Dade","25.6700","-80.4483","58976","2886","polygon","FALSE","FALSE","America/New_York","2","33196 33186","1840029009"
"Franklin Park","Franklin Park","FL","Florida","12011","Broward","12011","Broward","26.1340","-80.1762","1046","5103","polygon","FALSE","FALSE","America/New_York","2","33311","1840029104"
"Waukeenah","Waukeenah","FL","Florida","12065","Jefferson","12065","Jefferson","30.4020","-83.9600","211","25","polygon","FALSE","FALSE","America/New_York","3","32344","1840026008"
"Lighthouse Point","Lighthouse Point","FL","Florida","12011","Broward","12011","Broward","26.2785","-80.0891","11242","1881","polygon","FALSE","TRUE","America/New_York","3","33064","1840015998"
"St. George Island","St. George Island","FL","Florida","12037","Franklin","12037","Franklin","29.6520","-84.8881","740","60","polygon","FALSE","FALSE","America/New_York","3","32328","1840029111"
"Seville","Seville","FL","Florida","12127","Volusia","12127","Volusia","29.3364","-81.5065","646","35","polygon","FALSE","FALSE","America/New_York","3","32190","1840025144"
"Windsor","Windsor","FL","Florida","12061","Indian River","12061","Indian River","27.7869","-80.4141","252","111","polygon","FALSE","TRUE","America/New_York","3","32963","1840042918"
"De Leon Springs","De Leon Springs","FL","Florida","12127","Volusia","12127","Volusia","29.1172","-81.3517","2627","381","polygon","FALSE","FALSE","America/New_York","3","32720 32130","1840013118"
"Heritage Pines","Heritage Pines","FL","Florida","12101","Pasco","12101","Pasco","28.4267","-82.6254","2091","768","polygon","FALSE","TRUE","America/New_York","3","34667","1840038917"
"Charlotte Park","Charlotte Park","FL","Florida","12015","Charlotte","12015","Charlotte","26.9031","-82.0486","2058","771","polygon","FALSE","FALSE","America/New_York","3","33950","1840028650"
"Bay Harbor Islands","Bay Harbor Islands","FL","Florida","12086","Miami-Dade","12086","Miami-Dade","25.8878","-80.1335","6006","5850","polygon","FALSE","TRUE","America/New_York","2","33154","1840016005"
"Captiva","Captiva","FL","Florida","12071","Lee","12071","Lee","26.5205","-82.1910","194","63","polygon","FALSE","FALSE","America/New_York","3","33924","1840014217"
"Christmas","Christmas","FL","Florida","12095","Orange","12095","Orange","28.5606","-81.0201","1682","14","polygon","FALSE","FALSE","America/New_York","3","32709","1840014084"
"June Park","June Park","FL","Florida","12009","Brevard","12009","Brevard","28.0718","-80.6874","4225","545","polygon","FALSE","FALSE","America/New_York","3","32904","1840014074"
"Crystal River","Crystal River","FL","Florida","12017","Citrus","12017","Citrus","28.8964","-82.5991","4402.0","160","polygon","FALSE","TRUE","America/New_York","3","34428 34429 34423","1840015084"
"Palmetto","Palmetto","FL","Florida","12081","Manatee","12081","Manatee","27.5251","-82.5751","13661","994","polygon","FALSE","TRUE","America/New_York","3","34221 34220","1840015116"
"Riverview","Riverview","FL","Florida","12057","Hillsborough","12057","Hillsborough","27.8227","-82.3023","88191","736","polygon","FALSE","FALSE","America/New_York","3","33503 33569 33579 33578 33568","1840014158"
"Lake Hamilton","Lake Hamilton","FL","Florida","12105","Polk","12105","Polk","28.0478","-81.6270","1393","172","polygon","FALSE","TRUE","America/New_York","3","33851 33844","1840017240"
"Union Park","Union Park","FL","Florida","12095","Orange","12095","Orange","28.5645","-81.2354","10707","1349","polygon","FALSE","FALSE","America/New_York","3","32825 32817","1840014090"
"Fort Myers Beach","Fort Myers Beach","FL","Florida","12071","Lee","12071","Lee","26.4323","-81.9167","7077","982","polygon","FALSE","TRUE","America/New_York","3","33931 33932","1840017269"
"Yankeetown","Yankeetown","FL","Florida","12075","Levy","12075","Levy","29.0334","-82.7326","495","24","polygon","FALSE","TRUE","America/New_York","3","34498","1840017223"
"Southgate","Southgate","FL","Florida","12115","Sarasota","12115","Sarasota","27.3082","-82.5096","7539","1472","polygon","FALSE","FALSE","America/New_York","3","34239","1840029078"
"Ellenton","Ellenton","FL","Florida","12081","Manatee","12081","Manatee","27.5266","-82.5261","3423","395","polygon","FALSE","FALSE","America/New_York","3","34222 34221","1840013124"
"Branford","Branford","FL","Florida","12121","Suwannee","12121","Suwannee","29.9620","-82.9238","728","253","polygon","FALSE","TRUE","America/New_York","3","32008","1840015930"
"Ocean Ridge","Ocean Ridge","FL","Florida","12099","Palm Beach","12099","Palm Beach","26.5287","-80.0499","1943","982","polygon","FALSE","TRUE","America/New_York","3","33435","1840017266"
"Islamorada, Village of Islands","Islamorada, Village of Islands","FL","Florida","12087","Monroe","12087","Monroe","24.9408","-80.6097","6544","391","polygon","FALSE","TRUE","America/New_York","3","33036 33070","1840073890"
"Belleview","Belleview","FL","Florida","12083","Marion","12083","Marion","29.0611","-82.0565","4963","499","polygon","FALSE","TRUE","America/New_York","3","34420 34421","1840014040"
"Dade City North","Dade City North","FL","Florida","12101","Pasco","12101","Pasco","28.3837","-82.1943","2981","700","polygon","FALSE","TRUE","America/New_York","3","33525 33523","1840073823"
"Belleair Shore","Belleair Shore","FL","Florida","12103","Pinellas","12103","Pinellas","27.9173","-82.8455","114","740","polygon","FALSE","TRUE","America/New_York","3","33786","1840028633"
"Wallace","Wallace","FL","Florida","12113","Santa Rosa","12113","Santa Rosa","30.6746","-87.1996","2091","68","polygon","FALSE","FALSE","America/Chicago","3","32571","1840027010"
"Forest City","Forest City","FL","Florida","12117","Seminole","12117","Seminole","28.6619","-81.4443","14702","1324","polygon","FALSE","FALSE","America/New_York","3","32714 32703","1840028825"
"Safety Harbor","Safety Harbor","FL","Florida","12103","Pinellas","12103","Pinellas","28.0080","-82.6965","17844","1400","polygon","FALSE","TRUE","America/New_York","3","34695","1840015975"
"Royal Palm Beach","Royal Palm Beach","FL","Florida","12099","Palm Beach","12099","Palm Beach","26.7038","-80.2241","38592","1293","polygon","FALSE","TRUE","America/New_York","3","33411 33421","1840018309"
"Malabar","Malabar","FL","Florida","12009","Brevard","12009","Brevard","27.9885","-80.5781","3077","111","polygon","FALSE","TRUE","America/New_York","3","32950","1840017232"
"Palmetto Bay","Palmetto Bay","FL","Florida","12086","Miami-Dade","12086","Miami-Dade","25.6220","-80.3222","24710","1151","polygon","FALSE","TRUE","America/New_York","3","33158 33157 33257","1840018335"
"Port Orange","Port Orange","FL","Florida","12127","Volusia","12127","Volusia","29.1084","-81.0137","63203","912","polygon","FALSE","TRUE","America/New_York","3","32127 32129 32128 32122 32123","1840015077"
"Orange City","Orange City","FL","Florida","12127","Volusia","12127","Volusia","28.9349","-81.2882","11697","602","polygon","FALSE","TRUE","America/New_York","3","32763 32774","1840015075"
"Valrico","Valrico","FL","Florida","12057","Hillsborough","12057","Hillsborough","27.9193","-82.2293","37546","1049","polygon","FALSE","FALSE","America/New_York","3","33594 33596","1840028790"
"Cortez","Cortez","FL","Florida","12081","Manatee","12081","Manatee","27.4668","-82.6688","4332","750","polygon","FALSE","FALSE","America/New_York","3","34215 34210","1840013125"
"Fuller Heights","Fuller Heights","FL","Florida","12105","Polk","12105","Polk","27.9226","-81.9978","9719","870","polygon","FALSE","FALSE","America/New_York","3","33860","1840025156"
"Homestead","Homestead","FL","Florida","12086","Miami-Dade","12086","Miami-Dade","25.4665","-80.4472","69907","1789","polygon","FALSE","TRUE","America/New_York","3","33033 33030 33035","1840015159"
"Raiford","Raiford","FL","Florida","12125","Union","12125","Union","30.0638","-82.2390","242","171","polygon","FALSE","TRUE","America/New_York","3","32083","1840018256"
"Bay Lake","Bay Lake","FL","Florida","12095","Orange","12095","Orange","28.3869","-81.5756","50","0","polygon","FALSE","TRUE","America/New_York","3","32836 32830","1840011791"
"Miramar Beach","Miramar Beach","FL","Florida","12131","Walton","12131","Walton","30.3854","-86.3443","8555","470","polygon","FALSE","FALSE","America/Chicago","3","32550","1840013925"
"Golden Gate","Golden Gate","FL","Florida","12021","Collier","12021","Collier","26.1844","-81.7031","29841","2950","polygon","FALSE","FALSE","America/New_York","2","34116","1840014228"
"West Park","West Park","FL","Florida","12011","Broward","12011","Broward","25.9840","-80.1923","15153","2661","polygon","FALSE","TRUE","America/New_York","2","33023","1840016002"
"South Bradenton","South Bradenton","FL","Florida","12081","Manatee","12081","Manatee","27.4612","-82.5821","24935","2140","polygon","FALSE","FALSE","America/New_York","2","34205 34207 34210","1840029076"
"Lutz","Lutz","FL","Florida","12057","Hillsborough","12057","Hillsborough","28.1396","-82.4467","21448","339","polygon","FALSE","FALSE","America/New_York","3","33548 33549 33559 33647 33675","1840014156"
"Palm Bay","Palm Bay","FL","Florida","12009","Brevard","12009","Brevard","27.9550","-80.6628","489912.0","440","polygon","FALSE","TRUE","America/New_York","2","32909 32905 32907 32976 32948 32908 32902 32906 32910 32911","1840015094"
"Cottondale","Cottondale","FL","Florida","12063","Jackson","12063","Jackson","30.7891","-85.3643","906","107","polygon","FALSE","TRUE","America/Chicago","3","32431 32448","1840017150"
"Apopka","Apopka","FL","Florida","12095","Orange","12095","Orange","28.7013","-81.5303","51564","595","polygon","FALSE","TRUE","America/New_York","3","32712 32703 32768","1840014093"
"Moore Haven","Moore Haven","FL","Florida","12043","Glades","12043","Glades","26.8338","-81.0985","3450.0","655","polygon","FALSE","TRUE","America/New_York","3","33471","1840015121"
"North Miami","North Miami","FL","Florida","12086","Miami-Dade","12086","Miami-Dade","25.9007","-80.1686","62225","2849","polygon","FALSE","TRUE","America/New_York","2","33168 33167 33160 33161 33181 33261","1840015154"
"Haines City","Haines City","FL","Florida","12105","Polk","12105","Polk","28.1100","-81.6157","24304","497","polygon","FALSE","TRUE","America/New_York","3","33844 33845","1840014136"
"Otter Creek","Otter Creek","FL","Florida","12075","Levy","12075","Levy","29.3238","-82.7734","131","37","polygon","FALSE","TRUE","America/New_York","3","32626 32683","1840017224"
"Beverly Hills","Beverly Hills","FL","Florida","12017","Citrus","12017","Citrus","28.9175","-82.4541","9144","1189","polygon","FALSE","FALSE","America/New_York","3","34465 34464","1840014061"
"Middleburg","Middleburg","FL","Florida","12019","Clay","12019","Clay","30.0502","-81.9011","13316","261","polygon","FALSE","FALSE","America/New_York","3","32068 32050","1840013998"
"Key West","Key West","FL","Florida","12087","Monroe","12087","Monroe","24.5637","-81.7768","32820.0","1741","polygon","FALSE","TRUE","America/New_York","3","33040 33041 33045","1840015161"
"Atlantic Beach","Atlantic Beach","FL","Florida","12031","Duval","12031","Duval","30.3372","-81.4128","13608","1506","polygon","FALSE","TRUE","America/New_York","3","32233","1840013956"
"Zellwood","Zellwood","FL","Florida","12095","Orange","12095","Orange","28.7301","-81.5915","2997","329","polygon","FALSE","FALSE","America/New_York","3","32798 32757","1840014092"
"Miami Beach","Miami Beach","FL","Florida","12086","Miami-Dade","12086","Miami-Dade","25.8171","-80.1396","92307","4633","polygon","FALSE","TRUE","America/New_York","2","33140 33141 33139 33109 33119 33239","1840015150"
"Zephyrhills North","Zephyrhills North","FL","Florida","12101","Pasco","12101","Pasco","28.2519","-82.1653","2342","888","polygon","FALSE","TRUE","America/New_York","3","33542 33540","1840073857"
"Tangelo Park","Tangelo Park","FL","Florida","12095","Orange","12095","Orange","28.4560","-81.4465","2648","2913","polygon","FALSE","FALSE","America/New_York","2","32819","1840014087"
"Pahokee","Pahokee","FL","Florida","12099","Palm Beach","12099","Palm Beach","26.8202","-80.6622","7925.0","457","polygon","FALSE","TRUE","America/New_York","3","33476","1840015124"
"Cape Coral","Cape Coral","FL","Florida","12071","Lee","12071","Lee","26.6445","-81.9955","630134.0","669","polygon","FALSE","TRUE","America/New_York","2","33991 33990 33993 33914 33909 33904 33910 33911 33915","1840015130"
"St. Augustine Shores","St. Augustine Shores","FL","Florida","12109","St. Johns","12109","St. Johns","29.8039","-81.3086","9099","801","polygon","FALSE","FALSE","America/New_York","3","32086","1840013972"
"Seffner","Seffner","FL","Florida","12057","Hillsborough","12057","Hillsborough","27.9981","-82.2735","8239","881","polygon","FALSE","FALSE","America/New_York","3","33584 33583","1840014153"
"University Park","University Park","FL","Florida","12086","Miami-Dade","12086","Miami-Dade","25.7469","-80.3684","26565","2570","polygon","FALSE","FALSE","America/New_York","2","33174 33165 33199","1840029013"
"Taft","Taft","FL","Florida","12095","Orange","12095","Orange","28.4283","-81.3677","1874","735","polygon","FALSE","FALSE","America/New_York","3","32824","1840014086"
"Casselberry","Casselberry","FL","Florida","12117","Seminole","12117","Seminole","28.6625","-81.3218","28395","1581","polygon","FALSE","TRUE","America/New_York","3","32707 32718","1840015088"
"Flagler Estates","Flagler Estates","FL","Florida","12109","St. Johns","12109","St. Johns","29.6442","-81.4570","3520","114","polygon","FALSE","TRUE","America/New_York","3","32145","1840038863"
"Schall Circle","Schall Circle","FL","Florida","12099","Palm Beach","12099","Palm Beach","26.7152","-80.1143","1293","1662","polygon","FALSE","FALSE","America/New_York","3","33417","1840029002"
"Lauderhill","Lauderhill","FL","Florida","12011","Broward","12011","Broward","26.1605","-80.2242","71970","3261","polygon","FALSE","TRUE","America/New_York","2","33351 33313 33311 33319 33083","1840015146"
"Woodlawn Beach","Woodlawn Beach","FL","Florida","12113","Santa Rosa","12113","Santa Rosa","30.3861","-86.9931","2671","434","polygon","FALSE","FALSE","America/Chicago","3","32563","1840027011"
"Golf","Golf","FL","Florida","12099","Palm Beach","12099","Palm Beach","26.5043","-80.1090","282","134","polygon","FALSE","TRUE","America/New_York","3","33436","1840018306"
"Cypress Gardens","Cypress Gardens","FL","Florida","12105","Polk","12105","Polk","28.0036","-81.6858","9006","998","polygon","FALSE","FALSE","America/New_York","3","33884 33882","1840028660"
"Howey-in-the-Hills","Howey-in-the-Hills","FL","Florida","12069","Lake","12069","Lake","28.7098","-81.7798","1166","142","polygon","FALSE","TRUE","America/New_York","3","34737","1840028859"
"Callahan","Callahan","FL","Florida","12089","Nassau","12089","Nassau","30.5619","-81.8320","1342","370","polygon","FALSE","TRUE","America/New_York","3","32011","1840015907"
"North Palm Beach","North Palm Beach","FL","Florida","12099","Palm Beach","12099","Palm Beach","26.8217","-80.0577","13057","1541","polygon","FALSE","TRUE","America/New_York","3","33408","1840018307"
"West Melbourne","West Melbourne","FL","Florida","12009","Brevard","12009","Brevard","28.0693","-80.6734","22089","804","polygon","FALSE","TRUE","America/New_York","3","32904","1840015963"
"Lawtey","Lawtey","FL","Florida","12007","Bradford","12007","Bradford","30.0484","-82.0724","723","184","polygon","FALSE","TRUE","America/New_York","3","32058","1840015051"
"Hillcrest Heights","Hillcrest Heights","FL","Florida","12105","Polk","12105","Polk","27.8083","-81.5695","284","686","polygon","FALSE","TRUE","America/New_York","3","33827 33859 33843","1840017239"
"North Lauderdale","North Lauderdale","FL","Florida","12011","Broward","12011","Broward","26.2113","-80.2209","44198","3683","polygon","FALSE","TRUE","America/New_York","2","33068","1840015138"
"Connerton","Connerton","FL","Florida","12101","Pasco","12101","Pasco","28.3022","-82.4624","4132","123","polygon","FALSE","TRUE","America/New_York","3","34637 34639","1840038857"
"Canal Point","Canal Point","FL","Florida","12099","Palm Beach","12099","Palm Beach","26.8626","-80.6222","595","166","polygon","FALSE","FALSE","America/New_York","3","33438 33476","1840014202"
"Golden Glades","Golden Glades","FL","Florida","12086","Miami-Dade","12086","Miami-Dade","25.9129","-80.2013","34062","2721","polygon","FALSE","FALSE","America/New_York","2","33168 33161 33162 33169","1840029039"
"Port Richey","Port Richey","FL","Florida","12101","Pasco","12101","Pasco","28.2758","-82.7250","2831","492","polygon","FALSE","TRUE","America/New_York","3","34668 34673","1840015103"
"Mount Carmel","Mount Carmel","FL","Florida","12113","Santa Rosa","12113","Santa Rosa","30.9868","-87.1210","203","14","polygon","FALSE","FALSE","America/Chicago","3","32565","1840025114"
"Sopchoppy","Sopchoppy","FL","Florida","12129","Wakulla","12129","Wakulla","30.0598","-84.4854","473","108","polygon","FALSE","TRUE","America/New_York","3","32358","1840015934"
"Wimauma","Wimauma","FL","Florida","12057","Hillsborough","12057","Hillsborough","27.6964","-82.3034","7140","110","polygon","FALSE","FALSE","America/New_York","3","33598","1840014155"
"Quail Ridge","Quail Ridge","FL","Florida","12101","Pasco","12101","Pasco","28.3451","-82.5535","1847","182","polygon","FALSE","TRUE","America/New_York","3","34610","1840039089"
"Patrick AFB","Patrick AFB","FL","Florida","12009","Brevard","12009","Brevard","28.2346","-80.6079","1442","180","polygon","TRUE","TRUE","America/New_York","3","32925","1840042859"
"Hosford","Hosford","FL","Florida","12077","Liberty","12077","Liberty","30.3944","-84.8034","799","62","polygon","FALSE","FALSE","America/New_York","3","32334","1840026011"
"Hampton","Hampton","FL","Florida","12007","Bradford","12007","Bradford","29.8643","-82.1380","496","181","polygon","FALSE","TRUE","America/New_York","3","32044","1840014006"
"Samsula-Spruce Creek","Samsula-Spruce Creek","FL","Florida","12127","Volusia","12127","Volusia","29.0484","-81.0628","5489","126","polygon","FALSE","TRUE","America/New_York","3","32128 32168","1840035478"
"Inverness Highlands North","Inverness Highlands North","FL","Florida","12017","Citrus","12017","Citrus","28.8642","-82.3768","3219","658","polygon","FALSE","TRUE","America/New_York","3","34453","1840073843"
"Cloud Lake","Cloud Lake","FL","Florida","12099","Palm Beach","12099","Palm Beach","26.6743","-80.0731","146","1043","polygon","FALSE","TRUE","America/New_York","3","33406","1840017263"
"Lee","Lee","FL","Florida","12079","Madison","12079","Madison","30.4115","-83.3003","331","52","polygon","FALSE","TRUE","America/New_York","3","32059","1840017186"
"Altha","Altha","FL","Florida","12013","Calhoun","12013","Calhoun","30.5722","-85.1264","526","151","polygon","FALSE","TRUE","America/Chicago","3","32421","1840015919"
"Worthington Springs","Worthington Springs","FL","Florida","12125","Union","12125","Union","29.9330","-82.4148","390","157","polygon","FALSE","TRUE","America/New_York","3","32054 32697","1840017213"
"Edgewood","Edgewood","FL","Florida","12095","Orange","12095","Orange","28.4878","-81.3772","2930","930","polygon","FALSE","TRUE","America/New_York","3","32806 32809 32839","1840014099"
"Archer","Archer","FL","Florida","12001","Alachua","12001","Alachua","29.5400","-82.5186","1209","73","polygon","FALSE","TRUE","America/New_York","3","32618","1840014021"
"Lake Placid","Lake Placid","FL","Florida","12055","Highlands","12055","Highlands","27.2977","-81.3715","16683.0","234","polygon","FALSE","TRUE","America/New_York","3","33852 33862","1840017248"
"Boynton Beach","Boynton Beach","FL","Florida","12099","Palm Beach","12099","Palm Beach","26.5281","-80.0811","77702","1856","polygon","FALSE","TRUE","America/New_York","3","33426 33436 33435 33474","1840014208"
"Greensboro","Greensboro","FL","Florida","12039","Gadsden","12039","Gadsden","30.5705","-84.7324","607","102","polygon","FALSE","TRUE","America/New_York","3","32351 32330","1840017183"
"Conway","Conway","FL","Florida","12095","Orange","12095","Orange","28.4968","-81.3316","14023","1581","polygon","FALSE","FALSE","America/New_York","3","32806 32812","1840013121"
"Day","Day","FL","Florida","12067","Lafayette","12067","Lafayette","30.1950","-83.2909","179","76","polygon","FALSE","FALSE","America/New_York","3","32066","1840026032"
"Vero Beach South","Vero Beach South","FL","Florida","12061","Indian River","12061","Indian River","27.6164","-80.4130","24029","905","polygon","FALSE","TRUE","America/New_York","3","32960 32968 32966 32962","1840073853"
"Charlotte Harbor","Charlotte Harbor","FL","Florida","12015","Charlotte","12015","Charlotte","26.9629","-82.0571","3870","643","polygon","FALSE","FALSE","America/New_York","3","33980","1840014198"
"Pine Air","Pine Air","FL","Florida","12099","Palm Beach","12099","Palm Beach","26.6588","-80.1073","2154","2547","polygon","FALSE","TRUE","America/New_York","2","33406","1840042877"
"Leesburg","Leesburg","FL","Florida","12069","Lake","12069","Lake","28.7658","-81.8995","148161.0","239","polygon","FALSE","TRUE","America/New_York","2","34748 34762 34736 34749 34789","1840015083"
"Five Points","Five Points","FL","Florida","12023","Columbia","12023","Columbia","30.2224","-82.6464","1247","194","polygon","FALSE","FALSE","America/New_York","3","32055","1840013954"
"Layton","Layton","FL","Florida","12087","Monroe","12087","Monroe","24.8247","-80.8129","193","459","polygon","FALSE","TRUE","America/New_York","3","33001","1840015162"
"Babson Park","Babson Park","FL","Florida","12105","Polk","12105","Polk","27.8342","-81.5281","1399","354","polygon","FALSE","FALSE","America/New_York","3","33827","1840014124"
"Pelican Bay","Pelican Bay","FL","Florida","12021","Collier","12021","Collier","26.2326","-81.8108","5876","769","polygon","FALSE","FALSE","America/New_York","3","34108","1840028996"
"Sea Ranch Lakes","Sea Ranch Lakes","FL","Florida","12011","Broward","12011","Broward","26.2007","-80.0981","739","1640","polygon","FALSE","TRUE","America/New_York","3","33308","1840018329"
"Ojus","Ojus","FL","Florida","12086","Miami-Dade","12086","Miami-Dade","25.9563","-80.1606","17727","2583","polygon","FALSE","FALSE","America/New_York","2","33179 33180","1840028742"
"Belleair Bluffs","Belleair Bluffs","FL","Florida","12103","Pinellas","12103","Pinellas","27.9197","-82.8193","2112","1770","polygon","FALSE","TRUE","America/New_York","3","33770","1840014147"
"Wiscon","Wiscon","FL","Florida","12053","Hernando","12053","Hernando","28.5409","-82.4664","650","298","polygon","FALSE","FALSE","America/New_York","3","34613 34601","1840025148"
"Bronson","Bronson","FL","Florida","12075","Levy","12075","Levy","29.4501","-82.6391","1119","100","polygon","FALSE","TRUE","America/New_York","3","32621","1840015948"
"Trinity","Trinity","FL","Florida","12101","Pasco","12101","Pasco","28.1809","-82.6581","10529","908","polygon","FALSE","FALSE","America/New_York","3","34655","1840029012"
"Bowling Green","Bowling Green","FL","Florida","12049","Hardee","12049","Hardee","27.6380","-81.8244","2919","895","polygon","FALSE","TRUE","America/New_York","3","33834","1840014167"
"Gotha","Gotha","FL","Florida","12095","Orange","12095","Orange","28.5307","-81.5191","1911","431","polygon","FALSE","FALSE","America/New_York","3","34734 34786","1840014081"
"Palmetto Estates","Palmetto Estates","FL","Florida","12086","Miami-Dade","12086","Miami-Dade","25.6211","-80.3616","15998","2861","polygon","FALSE","FALSE","America/New_York","2","33157","1840029063"
"Miramar","Miramar","FL","Florida","12011","Broward","12011","Broward","25.9773","-80.3351","140328","1879","polygon","FALSE","TRUE","America/New_York","2","33029 33023 33027 33025","1840015137"
"Rotonda","Rotonda","FL","Florida","12015","Charlotte","12015","Charlotte","26.8845","-82.2791","8981","325","polygon","FALSE","FALSE","America/New_York","3","33947","1840014201"
"West Miami","West Miami","FL","Florida","12086","Miami-Dade","12086","Miami-Dade","25.7578","-80.2969","8120","4422","polygon","FALSE","TRUE","America/New_York","2","33144 33155","1840016009"
"Highland Beach","Highland Beach","FL","Florida","12099","Palm Beach","12099","Palm Beach","26.4088","-80.0661","3800","2733","polygon","FALSE","TRUE","America/New_York","2","33487","1840015995"
"Pompano Beach","Pompano Beach","FL","Florida","12011","Broward","12011","Broward","26.2428","-80.1312","110473","1775","polygon","FALSE","TRUE","America/New_York","2","33069 33060 33062 33064 33061 33072 33074 33097","1840015143"
"Memphis","Memphis","FL","Florida","12081","Manatee","12081","Manatee","27.5435","-82.5607","8926","1055","polygon","FALSE","FALSE","America/New_York","3","34221","1840014172"
"Matlacha Isles-Matlacha Shores","Matlacha Isles-Matlacha Shores","FL","Florida","12071","Lee","12071","Lee","26.6340","-82.0589","375","725","polygon","FALSE","TRUE","America/New_York","3","33991 33993","1840073863"
"Zolfo Springs","Zolfo Springs","FL","Florida","12049","Hardee","12049","Hardee","27.4926","-81.7869","1816","403","polygon","FALSE","TRUE","America/New_York","3","33890","1840017249"
"South Miami","South Miami","FL","Florida","12086","Miami-Dade","12086","Miami-Dade","25.7079","-80.2952","12281","2091","polygon","FALSE","TRUE","America/New_York","2","33143 33155 33243","1840016006"
"Hawk Springs","Hawk Springs","WY","Wyoming","56015","Goshen","56015","Goshen","41.7852","-104.2650","0","0","polygon","FALSE","FALSE","America/Denver","3","82244 82217","1840017459"
"Kemmerer","Kemmerer","WY","Wyoming","56023","Lincoln","56023","Lincoln","41.7761","-110.5555","3233.0","136","polygon","FALSE","TRUE","America/Denver","3","83101 83121 83116","1840018662"
"North Rock Springs","North Rock Springs","WY","Wyoming","56037","Sweetwater","56037","Sweetwater","41.6698","-109.2714","2027","53","polygon","FALSE","FALSE","America/Denver","3","82901","1840018691"
"Pine Haven","Pine Haven","WY","Wyoming","56011","Crook","56011","Crook","44.3534","-104.8104","522","153","polygon","FALSE","TRUE","America/Denver","3","82721","1840022347"
"Hudson","Hudson","WY","Wyoming","56013","Fremont","56013","Fremont","42.9028","-108.5819","452","409","polygon","FALSE","TRUE","America/Denver","3","82515 82520","1840021270"
"Arrowhead Springs","Arrowhead Springs","WY","Wyoming","56037","Sweetwater","56037","Sweetwater","41.5081","-109.1551","97","32","polygon","FALSE","FALSE","America/Denver","3","82901","1840038423"
"Lost Springs","Lost Springs","WY","Wyoming","56009","Converse","56009","Converse","42.7652","-104.9255","4","17","polygon","FALSE","TRUE","America/Denver","3","82229","1840021288"
"Bairoil","Bairoil","WY","Wyoming","56037","Sweetwater","56037","Sweetwater","42.2372","-107.5611","100","27","polygon","FALSE","TRUE","America/Denver","3","82322","1840020102"
"Deaver","Deaver","WY","Wyoming","56003","Big Horn","56003","Big Horn","44.8890","-108.5960","185","70","polygon","FALSE","TRUE","America/Denver","3","82421","1840021240"
"Fort Laramie","Fort Laramie","WY","Wyoming","56015","Goshen","56015","Goshen","42.2134","-104.5178","229","331","polygon","FALSE","TRUE","America/Denver","3","82212","1840021303"
"Jeffrey City","Jeffrey City","WY","Wyoming","56013","Fremont","56013","Fremont","42.4808","-107.8256","0","0","polygon","FALSE","FALSE","America/Denver","3","82520","1840017437"
"Wamsutter","Wamsutter","WY","Wyoming","56037","Sweetwater","56037","Sweetwater","41.6679","-107.9790","484","108","polygon","FALSE","TRUE","America/Denver","3","82336","1840022374"
"Shell","Shell","WY","Wyoming","56003","Big Horn","56003","Big Horn","44.5346","-107.7843","169","57","polygon","FALSE","FALSE","America/Denver","3","82441","1840026119"
"Ryan Park","Ryan Park","WY","Wyoming","56007","Carbon","56007","Carbon","41.3130","-106.4895","0","0","polygon","FALSE","FALSE","America/Denver","3","82331","1840024100"
"Reliance","Reliance","WY","Wyoming","56037","Sweetwater","56037","Sweetwater","41.6682","-109.1977","521","48","polygon","FALSE","FALSE","America/Denver","3","82943 82901","1840018692"
"Mammoth","Mammoth","WY","Wyoming","56029","Park","56029","Park","44.9733","-110.6930","57","27","polygon","FALSE","FALSE","America/Denver","3","82190","1840023927"
"East Thermopolis","East Thermopolis","WY","Wyoming","56017","Hot Springs","56017","Hot Springs","43.6441","-108.1979","249","529","polygon","FALSE","TRUE","America/Denver","3","82443","1840021267"
"Atlantic City","Atlantic City","WY","Wyoming","56013","Fremont","56013","Fremont","42.5012","-108.7330","0","0","polygon","FALSE","FALSE","America/Denver","3","82520","1840017434"
"Carter","Carter","WY","Wyoming","56041","Uinta","56041","Uinta","41.4404","-110.4304","0","0","polygon","FALSE","FALSE","America/Denver","3","82937","1840017481"
"Clearmont","Clearmont","WY","Wyoming","56033","Sheridan","56033","Sheridan","44.6397","-106.3814","147","339","polygon","FALSE","TRUE","America/Denver","3","82835","1840022345"
"Lovell","Lovell","WY","Wyoming","56003","Big Horn","56003","Big Horn","44.8358","-108.3918","2393","838","polygon","FALSE","TRUE","America/Denver","3","82431","1840021242"
"Eden","Eden","WY","Wyoming","56037","Sweetwater","56037","Sweetwater","42.0601","-109.4391","184","5","polygon","FALSE","FALSE","America/Denver","3","82932","1840017463"
"Powder River","Powder River","WY","Wyoming","56025","Natrona","56025","Natrona","43.0490","-106.9932","0","0","polygon","FALSE","FALSE","America/Denver","3","82604 82648","1840018657"
"Lingle","Lingle","WY","Wyoming","56015","Goshen","56015","Goshen","42.1388","-104.3461","463","574","polygon","FALSE","TRUE","America/Denver","3","82223","1840021305"
"Evanston","Evanston","WY","Wyoming","56041","Uinta","56041","Uinta","41.2602","-110.9646","11538.0","445","polygon","FALSE","TRUE","America/Denver","3","82930","1840020122"
"Newcastle","Newcastle","WY","Wyoming","56045","Weston","56045","Weston","43.8510","-104.2125","3144.0","510","polygon","FALSE","TRUE","America/Denver","3","82701","1840020012"
"Woods Landing-Jelm","Woods Landing-Jelm","WY","Wyoming","56001","Albany","56001","Albany","41.1014","-106.0288","56","1","polygon","FALSE","TRUE","America/Denver","3","82063 82070","1840074768"
"Crowheart","Crowheart","WY","Wyoming","56013","Fremont","56013","Fremont","43.3398","-109.2298","88","1","polygon","FALSE","FALSE","America/Denver","3","82512","1840017432"
"Freedom","Freedom","WY","Wyoming","56023","Lincoln","56023","Lincoln","42.9854","-111.0296","356","34","polygon","FALSE","FALSE","America/Denver","3","83120","1840026171"
"Osmond","Osmond","WY","Wyoming","56023","Lincoln","56023","Lincoln","42.6779","-110.9406","242","28","polygon","FALSE","FALSE","America/Denver","3","83110","1840024048"
"Table Rock","Table Rock","WY","Wyoming","56037","Sweetwater","56037","Sweetwater","41.6220","-108.4040","0","0","polygon","FALSE","FALSE","America/Denver","3","82901","1840018693"
"Hoback","Hoback","WY","Wyoming","56039","Teton","56039","Teton","43.3082","-110.7443","1409","12","polygon","FALSE","FALSE","America/Denver","3","83001","1840017430"
"Rock Springs","Rock Springs","WY","Wyoming","56037","Sweetwater","56037","Sweetwater","41.5951","-109.2237","26710.0","465","polygon","FALSE","TRUE","America/Denver","3","82901 82902","1840020101"
"Star Valley Ranch","Star Valley Ranch","WY","Wyoming","56023","Lincoln","56023","Lincoln","42.9796","-110.9620","1581","221","polygon","FALSE","TRUE","America/Denver","3","83127","1840022364"
"North Walpole","North Walpole","NH","New Hampshire","33005","Cheshire","33005","Cheshire","43.1469","-72.4459","789","444","polygon","FALSE","FALSE","America/New_York","3","03609","1840026181"
"Suissevale","Suissevale","NH","New Hampshire","33003","Carroll","33003","Carroll","43.7233","-71.3623","205","67","polygon","FALSE","TRUE","America/New_York","3","03254","1840043121"
"Hampton Beach","Hampton Beach","NH","New Hampshire","33015","Rockingham","33015","Rockingham","42.9142","-70.8128","2405","729","polygon","FALSE","FALSE","America/New_York","3","03842","1840026174"
"Pinardville","Pinardville","NH","New Hampshire","33011","Hillsborough","33011","Hillsborough","43.0010","-71.5171","5142","1193","polygon","FALSE","FALSE","America/New_York","3","03045 03102","1840002991"
"Milton Mills","Milton Mills","NH","New Hampshire","33017","Strafford","33017","Strafford","43.5037","-70.9654","431","193","polygon","FALSE","FALSE","America/New_York","3","03852","1840026159"
"Woodsville","Woodsville","NH","New Hampshire","33009","Grafton","33009","Grafton","44.1452","-72.0288","827","364","polygon","FALSE","FALSE","America/New_York","3","03785","1840002199"
"Zarephath","Zarephath","NJ","New Jersey","34035","Somerset","34035","Somerset","40.5361","-74.5745","9","8","polygon","FALSE","FALSE","America/New_York","3","08873 08890","1840024282"
"Beattystown","Beattystown","NJ","New Jersey","34041","Warren","34041","Warren","40.8222","-74.8502","4353","555","polygon","FALSE","FALSE","America/New_York","3","07840","1840005192"
"Alpine","Alpine","NJ","New Jersey","34003","Bergen","34003","Bergen","40.9615","-73.9199","1890","114","polygon","FALSE","TRUE","America/New_York","3","07620","1840003551"
"North Haledon","North Haledon","NJ","New Jersey","34031","Passaic","34031","Passaic","40.9628","-74.1844","8570","955","polygon","FALSE","TRUE","America/New_York","3","07508","1840000836"
"Woodstown","Woodstown","NJ","New Jersey","34033","Salem","34033","Salem","39.6503","-75.3251","4134.0","846","polygon","FALSE","TRUE","America/New_York","3","08098","1840001531"
"Vernon Center","Vernon Center","NJ","New Jersey","34037","Sussex","34037","Sussex","41.1874","-74.5015","1731","226","polygon","FALSE","TRUE","America/New_York","3","07462","1840039977"
"Colonia","Colonia","NJ","New Jersey","34023","Middlesex","34023","Middlesex","40.5929","-74.3151","17486","1719","polygon","FALSE","FALSE","America/New_York","3","07067","1840005411"
"Waretown","Waretown","NJ","New Jersey","34029","Ocean","34029","Ocean","39.7897","-74.1925","1828","783","polygon","FALSE","FALSE","America/New_York","3","08758","1840005537"
