"city","city_ascii","state_id","state_name","county_fips","county_name","county_fips_all","county_name_all","lat","lng","population","density","source","military","incorporated","timezone","ranking","zips","id"
"Roslyn","Roslyn","WA","Washington","53037","Kittitas","53037","Kittitas","47.2507","-121.0989","947","84","polygon","FALSE","TRUE","America/Los_Angeles","3","98941 98068 98925","1840019842"
"Gig Harbor","Gig Harbor","WA","Washington","53053","Pierce","53053","Pierce","47.3352","-122.5968","9507","622","polygon","FALSE","TRUE","America/Los_Angeles","3","98332 98335","1840019855"
"Tenino","Tenino","WA","Washington","53067","Thurston","53067","Thurston","46.8537","-122.8607","1830","491","polygon","FALSE","TRUE","America/Los_Angeles","3","98589","1840021144"
"Three Lakes","Three Lakes","WA","Washington","53061","Snohomish","53061","Snohomish","47.9420","-121.9924","3390","112","polygon","FALSE","FALSE","America/Los_Angeles","3","98290","1840018375"
"Chain Lake","Chain Lake","WA","Washington","53061","Snohomish","53061","Snohomish","47.9038","-121.9861","4280","156","polygon","FALSE","TRUE","America/Los_Angeles","3","98290","1840041915"
"Rosburg","Rosburg","WA","Washington","53069","Wahkiakum","53069","Wahkiakum","46.3076","-123.6344","385","6","polygon","FALSE","FALSE","America/Los_Angeles","3","98643","1840023878"
"Birch Bay","Birch Bay","WA","Washington","53073","Whatcom","53073","Whatcom","48.9230","-122.7543","8642","208","polygon","FALSE","FALSE","America/Los_Angeles","3","98230","1840017289"
"Navy Yard City","Navy Yard City","WA","Washington","53035","Kitsap","53035","Kitsap","47.5508","-122.6655","3154","1978","polygon","FALSE","FALSE","America/Los_Angeles","3","98312","1840018407"
"Farmington","Farmington","WA","Washington","53075","Whitman","53075","Whitman","47.0887","-117.0464","154","164","polygon","FALSE","TRUE","America/Los_Angeles","3","99128","1840021140"
"Cathcart","Cathcart","WA","Washington","53061","Snohomish","53061","Snohomish","47.8525","-122.1058","2506","250","polygon","FALSE","FALSE","America/Los_Angeles","3","98296","1840017324"
"Anacortes","Anacortes","WA","Washington","53057","Skagit","53057","Skagit","48.4878","-122.6292","17955.0","559","polygon","FALSE","TRUE","America/Los_Angeles","3","98221","1840018366"
"Creston","Creston","WA","Washington","53043","Lincoln","53043","Lincoln","47.7595","-118.5200","226","212","polygon","FALSE","TRUE","America/Los_Angeles","3","99117","1840021109"
"Wishram","Wishram","WA","Washington","53039","Klickitat","53039","Klickitat","45.6599","-120.9698","438","131","polygon","FALSE","FALSE","America/Los_Angeles","3","98673","1840018528"
"South Hill","South Hill","WA","Washington","53053","Pierce","53053","Pierce","47.1203","-122.2848","56379","1185","polygon","FALSE","FALSE","America/Los_Angeles","3","98375 98374 98373","1840037886"
"Erlands Point-Kitsap Lake","Erlands Point-Kitsap Lake","WA","Washington","53035","Kitsap","53035","Kitsap","47.5973","-122.7021","2973","655","polygon","FALSE","TRUE","America/Los_Angeles","3","98312","1840073915"
"St. John","St. John","WA","Washington","53075","Whitman","53075","Whitman","47.0915","-117.5887","561","322","polygon","FALSE","TRUE","America/Los_Angeles","3","99171","1840021139"
"Ketron Island","Ketron Island","WA","Washington","53053","Pierce","53053","Pierce","47.1569","-122.6343","0","0","polygon","FALSE","TRUE","America/Los_Angeles","3","98388","1840037558"
"Fife","Fife","WA","Washington","53053","Pierce","53053","Pierce","47.2328","-122.3518","10154","684","polygon","FALSE","TRUE","America/Los_Angeles","3","98424","1840019853"
"Chewelah","Chewelah","WA","Washington","53065","Stevens","53065","Stevens","48.2929","-117.7336","2637","341","polygon","FALSE","TRUE","America/Los_Angeles","3","99109","1840018360"
"Kittitas","Kittitas","WA","Washington","53037","Kittitas","53037","Kittitas","46.9837","-120.4191","1491","729","polygon","FALSE","TRUE","America/Los_Angeles","3","98934 98926","1840019843"
"Monroe North","Monroe North","WA","Washington","53061","Snohomish","53061","Snohomish","47.8830","-121.9882","1704","282","polygon","FALSE","TRUE","America/Los_Angeles","3","98290 98272","1840042006"
"Klickitat","Klickitat","WA","Washington","53039","Klickitat","53039","Klickitat","45.8180","-121.1626","358","147","polygon","FALSE","FALSE","America/Los_Angeles","3","98628","1840017404"
"Newport","Newport","WA","Washington","53051","Pend Oreille","53051","Pend Oreille","48.1788","-117.0545","2635.0","624","polygon","FALSE","TRUE","America/Los_Angeles","3","99156","1840019765"
"Cashmere","Cashmere","WA","Washington","53007","Chelan","53007","Chelan","47.5175","-120.4671","4864.0","1061","polygon","FALSE","TRUE","America/Los_Angeles","3","98815","1840018368"
"Ocean Shores","Ocean Shores","WA","Washington","53027","Grays Harbor","53027","Grays Harbor","46.9685","-124.1521","5553.0","268","polygon","FALSE","TRUE","America/Los_Angeles","3","98569","1840019849"
"Wilkeson","Wilkeson","WA","Washington","53053","Pierce","53053","Pierce","47.1034","-122.0495","507","420","polygon","FALSE","TRUE","America/Los_Angeles","3","98396","1840022310"
"Arlington Heights","Arlington Heights","WA","Washington","53061","Snohomish","53061","Snohomish","48.2119","-122.0630","2826","129","polygon","FALSE","FALSE","America/Los_Angeles","3","98223","1840037743"
"Oakesdale","Oakesdale","WA","Washington","53075","Whitman","53075","Whitman","47.1305","-117.2465","442","164","polygon","FALSE","TRUE","America/Los_Angeles","3","99158","1840022314"
"Conconully","Conconully","WA","Washington","53047","Okanogan","53047","Okanogan","48.5571","-119.7513","208","300","polygon","FALSE","TRUE","America/Los_Angeles","3","98819","1840022269"
"Elma","Elma","WA","Washington","53027","Grays Harbor","53027","Grays Harbor","47.0055","-123.4112","3092","468","polygon","FALSE","TRUE","America/Los_Angeles","3","98541","1840019844"
"Southworth","Southworth","WA","Washington","53035","Kitsap","53035","Kitsap","47.5126","-122.5298","2280","260","polygon","FALSE","FALSE","America/Los_Angeles","3","98366 98384 98386","1840023800"
"Toppenish","Toppenish","WA","Washington","53077","Yakima","53077","Yakima","46.3807","-120.3125","14441.0","1627","polygon","FALSE","TRUE","America/Los_Angeles","3","98948","1840021151"
"Geneva","Geneva","WA","Washington","53073","Whatcom","53073","Whatcom","48.7461","-122.4064","2632","958","polygon","FALSE","FALSE","America/Los_Angeles","3","98229","1840017291"
"Moxee","Moxee","WA","Washington","53077","Yakima","53077","Yakima","46.5638","-120.3968","4032","670","polygon","FALSE","TRUE","America/Los_Angeles","3","98936 98901","1840037381"
"Kalama","Kalama","WA","Washington","53015","Cowlitz","53015","Cowlitz","46.0171","-122.8393","3794.0","297","polygon","FALSE","TRUE","America/Los_Angeles","3","98625","1840018502"
"Vashon","Vashon","WA","Washington","53033","King","53033","King","47.4122","-122.4726","9635","100","polygon","FALSE","FALSE","America/Los_Angeles","3","98070 98013","1840018414"
"Darrington","Darrington","WA","Washington","53061","Snohomish","53061","Snohomish","48.2546","-121.6029","1406","306","polygon","FALSE","TRUE","America/Los_Angeles","3","98241","1840021081"
"Lyle","Lyle","WA","Washington","53039","Klickitat","53039","Klickitat","45.6956","-121.2805","548","299","polygon","FALSE","FALSE","America/Los_Angeles","3","98635","1840017402"
"Spangle","Spangle","WA","Washington","53063","Spokane","53063","Spokane","47.4299","-117.3812","307","339","polygon","FALSE","TRUE","America/Los_Angeles","3","99031","1840022290"
"Waterville","Waterville","WA","Washington","53017","Douglas","53017","Douglas","47.6480","-120.0707","1198","533","polygon","FALSE","TRUE","America/Los_Angeles","3","98858","1840022287"
"Milton","Milton","WA","Washington","53053","Pierce","53053|53033","Pierce|King","47.2522","-122.3154","8230","1185","polygon","FALSE","TRUE","America/Los_Angeles","3","98003 98354","1840019857"
"Alderton","Alderton","WA","Washington","53053","Pierce","53053","Pierce","47.1718","-122.2192","3303","240","polygon","FALSE","FALSE","America/Los_Angeles","3","98390 98372 98374","1840037523"
"Edgewood","Edgewood","WA","Washington","53053","Pierce","53053","Pierce","47.2309","-122.2832","11213","515","polygon","FALSE","TRUE","America/Los_Angeles","3","98372 98371","1840019852"
"Pacific Beach","Pacific Beach","WA","Washington","53027","Grays Harbor","53027","Grays Harbor","47.2150","-124.1967","538","171","polygon","FALSE","FALSE","America/Los_Angeles","3","98571","1840023817"
"Brewster","Brewster","WA","Washington","53047","Okanogan","53047","Okanogan","48.1034","-119.7751","2343","785","polygon","FALSE","TRUE","America/Los_Angeles","3","98812","1840018359"
"Shoreline","Shoreline","WA","Washington","53033","King","53033","King","47.7564","-122.3426","56189","1864","polygon","FALSE","TRUE","America/Los_Angeles","3","98155 98177 98133 98160","1840021118"
"Airway Heights","Airway Heights","WA","Washington","53063","Spokane","53063","Spokane","47.6459","-117.5792","8166","524","polygon","FALSE","TRUE","America/Los_Angeles","3","99224 99001","1840018399"
"Inchelium","Inchelium","WA","Washington","53019","Ferry","53019","Ferry","48.3378","-118.2372","413","6","polygon","FALSE","FALSE","America/Los_Angeles","3","99138","1840017307"
"Union","Union","WA","Washington","53045","Mason","53045","Mason","47.3475","-123.0952","272","64","polygon","FALSE","FALSE","America/Los_Angeles","3","98592","1840025253"
"Kelso","Kelso","WA","Washington","53015","Cowlitz","53015","Cowlitz","46.1248","-122.8909","12130","580","polygon","FALSE","TRUE","America/Los_Angeles","3","98626 98632","1840018503"
"Junction City","Junction City","WA","Washington","53027","Grays Harbor","53027","Grays Harbor","46.9713","-123.7651","10","2","polygon","FALSE","FALSE","America/Los_Angeles","3","98520","1840017362"
"West Pasco","West Pasco","WA","Washington","53021","Franklin","53021","Franklin","46.2497","-119.1684","1233","280","polygon","FALSE","FALSE","America/Los_Angeles","3","99301","1840037891"
"Davenport","Davenport","WA","Washington","53043","Lincoln","53043","Lincoln","47.6551","-118.1519","1708","395","polygon","FALSE","TRUE","America/Los_Angeles","3","99122","1840018404"
"Lake Stickney","Lake Stickney","WA","Washington","53061","Snohomish","53061","Snohomish","47.8709","-122.2596","9667","2441","polygon","FALSE","FALSE","America/Los_Angeles","2","98087 98204","1840037894"
"Everett","Everett","WA","Washington","53061","Snohomish","53061","Snohomish","47.9524","-122.1670","110079","1278","polygon","FALSE","TRUE","America/Los_Angeles","2","98207 98204 98205 98203 98201 98208 98275 98206 98213","1840019785"
"Palouse","Palouse","WA","Washington","53075","Whitman","53075","Whitman","46.9103","-117.0751","1055","388","polygon","FALSE","TRUE","America/Los_Angeles","3","99161","1840019863"
"Clarkston","Clarkston","WA","Washington","53003","Asotin","53003","Asotin","46.4152","-117.0502","7396","1430","polygon","FALSE","TRUE","America/Los_Angeles","3","99403","1840018499"
"Mossyrock","Mossyrock","WA","Washington","53041","Lewis","53041","Lewis","46.5305","-122.4887","789","444","polygon","FALSE","TRUE","America/Los_Angeles","3","98564","1840019883"
"Suquamish","Suquamish","WA","Washington","53035","Kitsap","53035","Kitsap","47.7238","-122.5830","4108","232","polygon","FALSE","FALSE","America/Los_Angeles","3","98392 98370","1840018411"
"Stanwood","Stanwood","WA","Washington","53061","Snohomish","53061","Snohomish","48.2451","-122.3426","7161.0","937","polygon","FALSE","TRUE","America/Los_Angeles","3","98292","1840021079"
"Donald","Donald","WA","Washington","53077","Yakima","53077","Yakima","46.4737","-120.3923","0","0","polygon","FALSE","FALSE","America/Los_Angeles","3","98951","1840023853"
"South Prairie","South Prairie","WA","Washington","53053","Pierce","53053","Pierce","47.1373","-122.0940","443","441","polygon","FALSE","TRUE","America/Los_Angeles","3","98385","1840022308"
"Indianola","Indianola","WA","Washington","53035","Kitsap","53035","Kitsap","47.7566","-122.5142","3520","258","polygon","FALSE","FALSE","America/Los_Angeles","3","98342 98346 98370","1840017337"
"Cowiche","Cowiche","WA","Washington","53077","Yakima","53077","Yakima","46.6729","-120.7154","960","708","polygon","FALSE","FALSE","America/Los_Angeles","3","98923","1840023852"
"Rocky Point","Rocky Point","WA","Washington","53035","Kitsap","53035","Kitsap","47.5882","-122.6668","1449","790","polygon","FALSE","FALSE","America/Los_Angeles","3","98312","1840037507"
"Lakeland North","Lakeland North","WA","Washington","53033","King","53033","King","47.3374","-122.2814","12487","1452","polygon","FALSE","TRUE","America/Los_Angeles","3","98001","1840074254"
"Camas","Camas","WA","Washington","53011","Clark","53011","Clark","45.6003","-122.4306","23331","646","polygon","FALSE","TRUE","America/Los_Angeles","3","98607","1840018524"
"Cusick","Cusick","WA","Washington","53051","Pend Oreille","53051","Pend Oreille","48.3328","-117.2961","217","161","polygon","FALSE","TRUE","America/Los_Angeles","3","99119","1840021060"
"Longbranch","Longbranch","WA","Washington","53053","Pierce","53053","Pierce","47.2257","-122.7739","3236","62","polygon","FALSE","FALSE","America/Los_Angeles","3","98349 98351","1840023835"
"North Fort Lewis","North Fort Lewis","WA","Washington","53053","Pierce","53053","Pierce","47.1221","-122.5966","5009","328","polygon","TRUE","TRUE","America/Los_Angeles","3","98433","1840042007"
"Tukwila","Tukwila","WA","Washington","53033","King","53033","King","47.4748","-122.2727","20144","847","polygon","FALSE","TRUE","America/Los_Angeles","3","98108 98178 98168 98188 98138 98190","1840021120"
"Wenatchee","Wenatchee","WA","Washington","53007","Chelan","53007","Chelan","47.4338","-120.3286","71512.0","1314","polygon","FALSE","TRUE","America/Los_Angeles","3","98801","1840021074"
"Castle Rock","Castle Rock","WA","Washington","53015","Cowlitz","53015","Cowlitz","46.2717","-122.9057","2833.0","433","polygon","FALSE","TRUE","America/Los_Angeles","3","98611","1840018501"
"Index","Index","WA","Washington","53061","Snohomish","53061","Snohomish","47.8212","-121.5556","205","384","polygon","FALSE","TRUE","America/Los_Angeles","3","98256","1840021082"
"Bellevue","Bellevue","WA","Washington","53033","King","53033","King","47.5953","-122.1550","144444","1666","polygon","FALSE","TRUE","America/Los_Angeles","2","98004 98005 98006 98007 98008 98009 98015","1840018417"
"Anderson Island","Anderson Island","WA","Washington","53053","Pierce","53053","Pierce","47.1577","-122.7037","1292","64","polygon","FALSE","TRUE","America/Los_Angeles","3","98303","1840041888"
"Montesano","Montesano","WA","Washington","53027","Grays Harbor","53027","Grays Harbor","47.0102","-123.5858","8494.0","147","polygon","FALSE","TRUE","America/Los_Angeles","3","98563","1840019847"
"Fords Prairie","Fords Prairie","WA","Washington","53041","Lewis","53041","Lewis","46.7461","-123.0029","1812","188","polygon","FALSE","FALSE","America/Los_Angeles","3","98531","1840017377"
"Oso","Oso","WA","Washington","53061","Snohomish","53061","Snohomish","48.2836","-121.9237","212","29","polygon","FALSE","FALSE","America/Los_Angeles","3","98223","1840018374"
"Elk Plain","Elk Plain","WA","Washington","53053","Pierce","53053","Pierce","47.0448","-122.3671","14280","716","polygon","FALSE","FALSE","America/Los_Angeles","3","98387 98338","1840037546"
"Bangor Base","Bangor Base","WA","Washington","53035","Kitsap","53035","Kitsap","47.7227","-122.7146","6358","221","polygon","TRUE","TRUE","America/Los_Angeles","3","98315","1840036750"
"Port Gamble Tribal Community","Port Gamble Tribal Community","WA","Washington","53035","Kitsap","53035","Kitsap","47.8487","-122.5571","920","83","polygon","FALSE","TRUE","America/Los_Angeles","3","98346","1840042014"
"East Wenatchee","East Wenatchee","WA","Washington","53017","Douglas","53017","Douglas","47.4172","-120.2809","13983","1425","polygon","FALSE","TRUE","America/Los_Angeles","3","98802","1840019795"
"Minnehaha","Minnehaha","WA","Washington","53011","Clark","53011","Clark","45.6577","-122.6204","11767","2056","polygon","FALSE","FALSE","America/Los_Angeles","2","98661","1840018518"
"Satsop","Satsop","WA","Washington","53027","Grays Harbor","53027","Grays Harbor","47.0223","-123.4737","572","31","polygon","FALSE","FALSE","America/Los_Angeles","3","98583 98541","1840018445"
"Easton","Easton","WA","Washington","53037","Kittitas","53037","Kittitas","47.2405","-121.1733","395","47","polygon","FALSE","FALSE","America/Los_Angeles","3","98925","1840017354"
"Napavine","Napavine","WA","Washington","53041","Lewis","53041","Lewis","46.5844","-122.9007","1893","252","polygon","FALSE","TRUE","America/Los_Angeles","3","98565 98532","1840019884"
"Ellensburg","Ellensburg","WA","Washington","53037","Kittitas","53037","Kittitas","46.9994","-120.5470","23471.0","1022","polygon","FALSE","TRUE","America/Los_Angeles","3","98926","1840019841"
"Fairfield","Fairfield","WA","Washington","53063","Spokane","53063","Spokane","47.3848","-117.1748","616","387","polygon","FALSE","TRUE","America/Los_Angeles","3","99012","1840021096"
"Mansfield","Mansfield","WA","Washington","53017","Douglas","53017","Douglas","47.8119","-119.6380","339","401","polygon","FALSE","TRUE","America/Los_Angeles","3","98830","1840022286"
"Markham","Markham","WA","Washington","53027","Grays Harbor","53027","Grays Harbor","46.9155","-123.9814","238","82","polygon","FALSE","FALSE","America/Los_Angeles","3","98520","1840017359"
"Longview","Longview","WA","Washington","53015","Cowlitz","53015","Cowlitz","46.1460","-122.9630","65619.0","976","polygon","FALSE","TRUE","America/Los_Angeles","3","98632","1840019904"
"Rosedale","Rosedale","WA","Washington","53053","Pierce","53053","Pierce","47.3453","-122.6368","4459","379","polygon","FALSE","FALSE","America/Los_Angeles","3","98332","1840023839"
"Bethel","Bethel","WA","Washington","53035","Kitsap","53035","Kitsap","47.4874","-122.6175","3673","448","polygon","FALSE","FALSE","America/Los_Angeles","3","98367","1840023792"
"Lofall","Lofall","WA","Washington","53035","Kitsap","53035","Kitsap","47.8113","-122.6564","2211","427","polygon","FALSE","FALSE","America/Los_Angeles","3","98370","1840023798"
"Winlock","Winlock","WA","Washington","53041","Lewis","53041","Lewis","46.4907","-122.9342","1354","405","polygon","FALSE","TRUE","America/Los_Angeles","3","98596","1840021164"
"Cottage Lake","Cottage Lake","WA","Washington","53033","King","53033","King","47.7466","-122.0755","23941","406","polygon","FALSE","FALSE","America/Los_Angeles","3","98072 98077","1840037848"
"Woods Creek","Woods Creek","WA","Washington","53061","Snohomish","53061","Snohomish","47.8821","-121.8982","5826","160","polygon","FALSE","FALSE","America/Los_Angeles","3","98272","1840037864"
"Sisco Heights","Sisco Heights","WA","Washington","53061","Snohomish","53061","Snohomish","48.1188","-122.1076","2810","86","polygon","FALSE","FALSE","America/Los_Angeles","3","98223","1840037510"
"Wapato","Wapato","WA","Washington","53077","Yakima","53077","Yakima","46.4434","-120.4215","7686.0","1646","polygon","FALSE","TRUE","America/Los_Angeles","3","98951","1840021153"
"Lake Goodwin","Lake Goodwin","WA","Washington","53061","Snohomish","53061","Snohomish","48.1387","-122.2804","3879","374","polygon","FALSE","FALSE","America/Los_Angeles","3","98223 98292 98271","1840037872"
"Kent","Kent","WA","Washington","53033","King","53033","King","47.3887","-122.2128","128458","1470","polygon","FALSE","TRUE","America/Los_Angeles","2","98031 98030 98032 98042 98035 98064 98089","1840018424"
"Ryderwood","Ryderwood","WA","Washington","53015","Cowlitz","53015","Cowlitz","46.3750","-123.0441","332","797","polygon","FALSE","FALSE","America/Los_Angeles","3","98581","1840025275"
"La Conner","La Conner","WA","Washington","53057","Skagit","53057","Skagit","48.3925","-122.4945","3475.0","905","polygon","FALSE","TRUE","America/Los_Angeles","3","98257","1840021068"
"George","George","WA","Washington","53025","Grant","53025","Grant","47.0845","-119.8598","507","151","polygon","FALSE","TRUE","America/Los_Angeles","3","98848 98824","1840019814"
"Eatonville","Eatonville","WA","Washington","53053","Pierce","53053","Pierce","46.8682","-122.2698","3038.0","633","polygon","FALSE","TRUE","America/Los_Angeles","3","98328","1840021131"
"Almira","Almira","WA","Washington","53043","Lincoln","53043","Lincoln","47.7105","-118.9369","276","205","polygon","FALSE","TRUE","America/Los_Angeles","3","99103","1840021108"
"Mount Vista","Mount Vista","WA","Washington","53011","Clark","53011","Clark","45.7373","-122.6315","8525","628","polygon","FALSE","FALSE","America/Los_Angeles","3","98642 98686","1840037858"
"Lakeland South","Lakeland South","WA","Washington","53033","King","53033","King","47.2784","-122.2831","13982","1087","polygon","FALSE","TRUE","America/Los_Angeles","3","98001 98003","1840074270"
"Neah Bay","Neah Bay","WA","Washington","53009","Clallam","53009","Clallam","48.3612","-124.6115","994","163","polygon","FALSE","FALSE","America/Los_Angeles","3","98357","1840023937"
"Port Angeles East","Port Angeles East","WA","Washington","53009","Clallam","53009","Clallam","48.1041","-123.3695","3627","371","polygon","FALSE","TRUE","America/Los_Angeles","3","98362","1840074570"
"Taholah","Taholah","WA","Washington","53027","Grays Harbor","53027","Grays Harbor","47.3283","-124.2728","714","79","polygon","FALSE","FALSE","America/Los_Angeles","3","98587","1840018447"
"Connell","Connell","WA","Washington","53021","Franklin","53021","Franklin","46.6624","-118.8405","5360.0","275","polygon","FALSE","TRUE","America/Los_Angeles","3","99326","1840018479"
"Santiago","Santiago","WA","Washington","53027","Grays Harbor","53027","Grays Harbor","47.2975","-124.2327","26","6","polygon","FALSE","TRUE","America/Los_Angeles","3","98587","1840042040"
"Colville","Colville","WA","Washington","53065","Stevens","53065","Stevens","48.5454","-117.8986","5064.0","596","polygon","FALSE","TRUE","America/Los_Angeles","3","99114","1840018361"
"Walla Walla","Walla Walla","WA","Washington","53071","Walla Walla","53071","Walla Walla","46.0669","-118.3365","57779.0","938","polygon","FALSE","TRUE","America/Los_Angeles","3","99362","1840021174"
"Curlew","Curlew","WA","Washington","53019","Ferry","53019","Ferry","48.8777","-118.6045","149","75","polygon","FALSE","FALSE","America/Los_Angeles","3","99118","1840025242"
"Hoodsport","Hoodsport","WA","Washington","53045","Mason","53045","Mason","47.4020","-123.1542","331","121","polygon","FALSE","FALSE","America/Los_Angeles","3","98548","1840025233"
"Mattawa","Mattawa","WA","Washington","53025","Grant","53025","Grant","46.7364","-119.9019","5122.0","2388","polygon","FALSE","TRUE","America/Los_Angeles","2","99349","1840022292"
"Prairie Ridge","Prairie Ridge","WA","Washington","53053","Pierce","53053","Pierce","47.1443","-122.1408","12733","1202","polygon","FALSE","FALSE","America/Los_Angeles","3","98360 98391","1840037882"
"Stansberry Lake","Stansberry Lake","WA","Washington","53053","Pierce","53053","Pierce","47.3814","-122.7154","2747","510","polygon","FALSE","TRUE","America/Los_Angeles","3","98329","1840042090"
"Frederickson","Frederickson","WA","Washington","53053","Pierce","53053","Pierce","47.0914","-122.3594","21737","725","polygon","FALSE","FALSE","America/Los_Angeles","3","98387 98375 98446","1840037551"
"Mill Creek","Mill Creek","WA","Washington","53061","Snohomish","53061","Snohomish","47.8633","-122.2034","20832","1747","polygon","FALSE","TRUE","America/Los_Angeles","3","98012 98082","1840019790"
"Green Bluff","Green Bluff","WA","Washington","53063","Spokane","53063","Spokane","47.8190","-117.2770","544","27","polygon","FALSE","FALSE","America/Los_Angeles","3","99021 99005","1840023785"
"Puyallup","Puyallup","WA","Washington","53053","Pierce","53053","Pierce","47.1794","-122.2902","41001","1119","polygon","FALSE","TRUE","America/Los_Angeles","3","98372 98371 98374 98373 98352","1840019859"
"Lake McMurray","Lake McMurray","WA","Washington","53057","Skagit","53057","Skagit","48.3129","-122.2317","134","63","polygon","FALSE","FALSE","America/Los_Angeles","3","98274","1840037893"
"Issaquah","Issaquah","WA","Washington","53033","King","53033","King","47.5420","-122.0444","37487","1192","polygon","FALSE","TRUE","America/Los_Angeles","3","98029 98027","1840018422"
"Hazel Dell","Hazel Dell","WA","Washington","53011","Clark","53011","Clark","45.6797","-122.6553","21449","1718","polygon","FALSE","FALSE","America/Los_Angeles","3","98665","1840037662"
"Wilbur","Wilbur","WA","Washington","53043","Lincoln","53043","Lincoln","47.7583","-118.7110","839","249","polygon","FALSE","TRUE","America/Los_Angeles","3","99185","1840022296"
"Centerville","Centerville","WA","Washington","53039","Klickitat","53039","Klickitat","45.7540","-120.9081","109","12","polygon","FALSE","FALSE","America/Los_Angeles","3","98613","1840017401"
"Spokane Valley","Spokane Valley","WA","Washington","53063","Spokane","53063","Spokane","47.6625","-117.2346","97847","1001","polygon","FALSE","TRUE","America/Los_Angeles","3","99206 99016 99212 99216 99037 99211 99213 99215","1840021094"
"Lewisville","Lewisville","WA","Washington","53011","Clark","53011","Clark","45.8127","-122.5144","1503","107","polygon","FALSE","FALSE","America/Los_Angeles","3","98604","1840037855"
"Gorst","Gorst","WA","Washington","53035","Kitsap","53035","Kitsap","47.5237","-122.7057","257","160","polygon","FALSE","FALSE","America/Los_Angeles","3","98312 98367","1840023795"
"Ione","Ione","WA","Washington","53051","Pend Oreille","53051","Pend Oreille","48.7402","-117.4223","459","330","polygon","FALSE","TRUE","America/Los_Angeles","3","99139","1840021061"
"Vaughn","Vaughn","WA","Washington","53053","Pierce","53053","Pierce","47.3550","-122.7773","342","57","polygon","FALSE","FALSE","America/Los_Angeles","3","98329 98394","1840023841"
"Ferndale","Ferndale","WA","Washington","53073","Whatcom","53073","Whatcom","48.8525","-122.5893","14026","775","polygon","FALSE","TRUE","America/Los_Angeles","3","98248","1840019751"
"White Center","White Center","WA","Washington","53033","King","53033","King","47.5086","-122.3480","15300","2614","polygon","FALSE","FALSE","America/Los_Angeles","2","98106 98146 98168","1840037727"
"Pacific","Pacific","WA","Washington","53033","King","53033|53053","King|Pierce","47.2611","-122.2507","7184","1149","polygon","FALSE","TRUE","America/Los_Angeles","3","98001 98047","1840019834"
"Colfax","Colfax","WA","Washington","53075","Whitman","53075","Whitman","46.9032","-117.3394","2811.0","299","polygon","FALSE","TRUE","America/Los_Angeles","3","99111","1840018458"
"Forks","Forks","WA","Washington","53009","Clallam","53009","Clallam","47.9526","-124.3904","4274.0","359","polygon","FALSE","TRUE","America/Los_Angeles","3","98331","1840019781"
"Okanogan","Okanogan","WA","Washington","53047","Okanogan","53047","Okanogan","48.3671","-119.5784","2571","493","polygon","FALSE","TRUE","America/Los_Angeles","3","98840","1840019760"
"Union Hill-Novelty Hill","Union Hill-Novelty Hill","WA","Washington","53033","King","53033","King","47.6788","-122.0284","22109","352","polygon","FALSE","TRUE","America/Los_Angeles","3","98053 98077","1840074663"
"Lake Tapps","Lake Tapps","WA","Washington","53053","Pierce","53053","Pierce","47.2305","-122.1696","13091","409","polygon","FALSE","TRUE","America/Los_Angeles","3","98391","1840041971"
"Tonasket","Tonasket","WA","Washington","53047","Okanogan","53047","Okanogan","48.7077","-119.4412","1126","459","polygon","FALSE","TRUE","America/Los_Angeles","3","98855","1840021057"
"Lakeview","Lakeview","WA","Washington","53025","Grant","53025","Grant","47.3755","-119.5043","881","301","polygon","FALSE","FALSE","America/Los_Angeles","3","98851","1840136062"
"Pullman","Pullman","WA","Washington","53075","Whitman","53075","Whitman","46.7340","-117.1669","33276.0","1206","polygon","FALSE","TRUE","America/Los_Angeles","3","99164 99163","1840019864"
"Brinnon","Brinnon","WA","Washington","53031","Jefferson","53031","Jefferson","47.6689","-122.9249","703","28","polygon","FALSE","FALSE","America/Los_Angeles","3","98320","1840017329"
"Orchards","Orchards","WA","Washington","53011","Clark","53011","Clark","45.6888","-122.5305","21299","1521","polygon","FALSE","FALSE","America/Los_Angeles","3","98682","1840018519"
"Tekoa","Tekoa","WA","Washington","53075","Whitman","53075","Whitman","47.2247","-117.0732","809","254","polygon","FALSE","TRUE","America/Los_Angeles","3","99033","1840021135"
"Thorp","Thorp","WA","Washington","53037","Kittitas","53037","Kittitas","47.0656","-120.6709","297","93","polygon","FALSE","FALSE","America/Los_Angeles","3","98946","1840018439"
"Liberty Lake","Liberty Lake","WA","Washington","53063","Spokane","53063","Spokane","47.6687","-117.1032","9893","621","polygon","FALSE","TRUE","America/Los_Angeles","3","99019 99016","1840037678"
"Sammamish","Sammamish","WA","Washington","53033","King","53033","King","47.6019","-122.0419","64548","1219","polygon","FALSE","TRUE","America/Los_Angeles","3","98029 98075 98074","1840021115"
"Fern Prairie","Fern Prairie","WA","Washington","53011","Clark","53011","Clark","45.6370","-122.3963","2611","200","polygon","FALSE","FALSE","America/Los_Angeles","3","98607","1840023890"
"Lakewood","Lakewood","WA","Washington","53053","Pierce","53053","Pierce","47.1628","-122.5299","60296","1362","polygon","FALSE","TRUE","America/Los_Angeles","3","98499 98498 98496 98497","1840019860"
"Central Park","Central Park","WA","Washington","53027","Grays Harbor","53027","Grays Harbor","46.9705","-123.7018","2741","300","polygon","FALSE","FALSE","America/Los_Angeles","3","98520","1840017358"
"Raft Island","Raft Island","WA","Washington","53053","Pierce","53053","Pierce","47.3293","-122.6686","341","475","polygon","FALSE","TRUE","America/Los_Angeles","3","98335","1840042039"
"Lake Bosworth","Lake Bosworth","WA","Washington","53061","Snohomish","53061","Snohomish","48.0532","-121.9812","654","74","polygon","FALSE","FALSE","America/Los_Angeles","3","98290 98252","1840037850"
"Sekiu","Sekiu","WA","Washington","53009","Clallam","53009","Clallam","48.2637","-124.3012","50","150","polygon","FALSE","FALSE","America/Los_Angeles","3","98381","1840025248"
"Spokane","Spokane","WA","Washington","53063","Spokane","53063","Spokane","47.6671","-117.4330","403043.0","1218","polygon","FALSE","TRUE","America/Los_Angeles","2","99201 99203 99202 99205 99204 99207 99208 99224 99223 99001 99212 99209 99210 99219 99220 99252 99256 99258 99260","1840021093"
"Pasco","Pasco","WA","Washington","53021","Franklin","53021","Franklin","46.2506","-119.1303","73013","832","polygon","FALSE","TRUE","America/Los_Angeles","3","99301 99302","1840019888"
"Oakville","Oakville","WA","Washington","53027","Grays Harbor","53027","Grays Harbor","46.8403","-123.2333","684","498","polygon","FALSE","TRUE","America/Los_Angeles","3","98568","1840019848"
"Herron Island","Herron Island","WA","Washington","53053","Pierce","53053","Pierce","47.2645","-122.8348","69","55","polygon","FALSE","TRUE","America/Los_Angeles","3","98349","1840041931"
"Royal City","Royal City","WA","Washington","53025","Grant","53025","Grant","46.9000","-119.6142","2205","639","polygon","FALSE","TRUE","America/Los_Angeles","3","99357","1840019816"
"Hoquiam","Hoquiam","WA","Washington","53027","Grays Harbor","53027","Grays Harbor","46.9863","-123.9023","8500","344","polygon","FALSE","TRUE","America/Los_Angeles","3","98550","1840019845"
"Quilcene","Quilcene","WA","Washington","53031","Jefferson","53031","Jefferson","47.8369","-122.9058","432","18","polygon","FALSE","FALSE","America/Los_Angeles","3","98376","1840018389"
"McCleary","McCleary","WA","Washington","53027","Grays Harbor","53027","Grays Harbor","47.0584","-123.2723","1691","318","polygon","FALSE","TRUE","America/Los_Angeles","3","98557","1840019846"
"Long Beach","Long Beach","WA","Washington","53049","Pacific","53049","Pacific","46.3559","-124.0556","1413","395","polygon","FALSE","TRUE","America/Los_Angeles","3","98631","1840019880"
"Coulee Dam","Coulee Dam","WA","Washington","53047","Okanogan","53047|53025|53017","Okanogan|Grant|Douglas","47.9688","-118.9761","1079","576","polygon","FALSE","TRUE","America/Los_Angeles","3","99116","1840022270"
"Pine Grove","Pine Grove","WA","Washington","53019","Ferry","53019","Ferry","48.6502","-118.6834","111","87","polygon","FALSE","TRUE","America/Los_Angeles","3","99166","1840043279"
"Sedro-Woolley","Sedro-Woolley","WA","Washington","53057","Skagit","53057","Skagit","48.5113","-122.2321","11838","1057","polygon","FALSE","TRUE","America/Los_Angeles","3","98284","1840021066"
"Entiat","Entiat","WA","Washington","53007","Chelan","53007","Chelan","47.6780","-120.2175","1223","216","polygon","FALSE","TRUE","America/Los_Angeles","3","98822","1840019777"
"Auburn","Auburn","WA","Washington","53033","King","53033|53053","King|Pierce","47.3041","-122.2110","80776","1057","polygon","FALSE","TRUE","America/Los_Angeles","3","98001 98002 98092","1840018416"
"White Swan","White Swan","WA","Washington","53077","Yakima","53077","Yakima","46.3769","-120.7382","973","140","polygon","FALSE","FALSE","America/Los_Angeles","3","98952","1840018464"
"Lacey","Lacey","WA","Washington","53067","Thurston","53067","Thurston","47.0458","-122.7934","49748","1132","polygon","FALSE","TRUE","America/Los_Angeles","3","98503 98516 98509","1840019866"
"Clyde Hill","Clyde Hill","WA","Washington","53033","King","53033","King","47.6303","-122.2180","3318","1213","polygon","FALSE","TRUE","America/Los_Angeles","3","98004","1840018413"
"Marcus","Marcus","WA","Washington","53065","Stevens","53065","Stevens","48.6642","-118.0601","183","316","polygon","FALSE","TRUE","America/Los_Angeles","3","99126 99151","1840022273"
"Malone","Malone","WA","Washington","53027","Grays Harbor","53027","Grays Harbor","46.9779","-123.3035","543","23","polygon","FALSE","FALSE","America/Los_Angeles","3","98559 98541","1840026097"
"Yarrow Point","Yarrow Point","WA","Washington","53033","King","53033","King","47.6452","-122.2179","1126","1190","polygon","FALSE","TRUE","America/Los_Angeles","3","98004","1840022300"
"West Richland","West Richland","WA","Washington","53005","Benton","53005","Benton","46.3115","-119.3997","14596","254","polygon","FALSE","TRUE","America/Los_Angeles","3","99320 99353","1840021168"
"Federal Way","Federal Way","WA","Washington","53033","King","53033","King","47.3090","-122.3359","96690","1679","polygon","FALSE","TRUE","America/Los_Angeles","3","98023 98003 98063 98093","1840019826"
"Deep River","Deep River","WA","Washington","53069","Wahkiakum","53069","Wahkiakum","46.3521","-123.6984","151","4","polygon","FALSE","FALSE","America/Los_Angeles","3","98638","1840023929"
"South Wenatchee","South Wenatchee","WA","Washington","53007","Chelan","53007","Chelan","47.3886","-120.2829","2057","683","polygon","FALSE","TRUE","America/Los_Angeles","3","98801","1840037106"
"Hartline","Hartline","WA","Washington","53025","Grant","53025","Grant","47.6895","-119.1081","154","178","polygon","FALSE","TRUE","America/Los_Angeles","3","99135","1840021105"
"Crocker","Crocker","WA","Washington","53053","Pierce","53053","Pierce","47.0843","-122.1225","1332","71","polygon","FALSE","TRUE","America/Los_Angeles","3","98360","1840041924"
"Ravensdale","Ravensdale","WA","Washington","53033","King","53033","King","47.3563","-121.9692","1579","136","polygon","FALSE","FALSE","America/Los_Angeles","3","98051 98038","1840018412"
"McChord AFB","McChord AFB","WA","Washington","53053","Pierce","53053","Pierce","47.1328","-122.4924","3337","216","polygon","TRUE","TRUE","America/Los_Angeles","3","98439 98438","1840073929"
"Lynden","Lynden","WA","Washington","53073","Whatcom","53073","Whatcom","48.9503","-122.4544","17340.0","1019","polygon","FALSE","TRUE","America/Los_Angeles","3","98264","1840019752"
"Prescott","Prescott","WA","Washington","53071","Walla Walla","53071","Walla Walla","46.2988","-118.3126","304","292","polygon","FALSE","TRUE","America/Los_Angeles","3","99348","1840021175"
"Mabton","Mabton","WA","Washington","53077","Yakima","53077","Yakima","46.2115","-119.9938","2532.0","1064","polygon","FALSE","TRUE","America/Los_Angeles","3","98935","1840019873"
"Grapeview","Grapeview","WA","Washington","53045","Mason","53045","Mason","47.3316","-122.8413","982","103","polygon","FALSE","FALSE","America/Los_Angeles","3","98524 98546","1840037554"
"Rochester","Rochester","WA","Washington","53067","Thurston","53067","Thurston","46.8288","-123.0722","2923","484","polygon","FALSE","FALSE","America/Los_Angeles","3","98579","1840018459"
"Algona","Algona","WA","Washington","53033","King","53033","King","47.2822","-122.2504","3185","933","polygon","FALSE","TRUE","America/Los_Angeles","3","98001 98047","1840018415"
"Barstow","Barstow","WA","Washington","53019","Ferry","53019","Ferry","48.7783","-118.1329","119","82","polygon","FALSE","FALSE","America/Los_Angeles","3","99141","1840026089"
"Bellingham","Bellingham","WA","Washington","53073","Whatcom","53073","Whatcom","48.7543","-122.4687","126015.0","1241","polygon","FALSE","TRUE","America/Los_Angeles","2","98229 98225 98226 98228","1840018346"
"North Lynnwood","North Lynnwood","WA","Washington","53061","Snohomish","53061","Snohomish","47.8533","-122.2762","20626","2549","polygon","FALSE","FALSE","America/Los_Angeles","2","98087 98037","1840037895"
"White Salmon","White Salmon","WA","Washington","53039","Klickitat","53039","Klickitat","45.7282","-121.4853","2552","657","polygon","FALSE","TRUE","America/Los_Angeles","3","98672","1840021191"
"East Renton Highlands","East Renton Highlands","WA","Washington","53033","King","53033","King","47.4718","-122.0854","11401","393","polygon","FALSE","FALSE","America/Los_Angeles","3","98027 98059 98038","1840037866"
"Deming","Deming","WA","Washington","53073","Whatcom","53073","Whatcom","48.8381","-122.2313","240","17","polygon","FALSE","FALSE","America/Los_Angeles","3","98247 98244","1840018345"
"Aberdeen","Aberdeen","WA","Washington","53027","Grays Harbor","53027","Grays Harbor","46.9757","-123.8095","29089.0","585","polygon","FALSE","TRUE","America/Los_Angeles","3","98520","1840018446"
"Onalaska","Onalaska","WA","Washington","53041","Lewis","53041","Lewis","46.5783","-122.7112","709","171","polygon","FALSE","FALSE","America/Los_Angeles","3","98570","1840025264"
"Everson","Everson","WA","Washington","53073","Whatcom","53073","Whatcom","48.9123","-122.3510","4709.0","797","polygon","FALSE","TRUE","America/Los_Angeles","3","98247","1840019750"
"Lynnwood","Lynnwood","WA","Washington","53061","Snohomish","53061","Snohomish","47.8285","-122.3035","38273","1890","polygon","FALSE","TRUE","America/Los_Angeles","3","98037 98036 98046","1840019788"
"Malden","Malden","WA","Washington","53075","Whitman","53075","Whitman","47.2296","-117.4731","209","122","polygon","FALSE","TRUE","America/Los_Angeles","3","99149","1840022313"
"Wilson Creek","Wilson Creek","WA","Washington","53025","Grant","53025","Grant","47.4230","-119.1176","212","85","polygon","FALSE","TRUE","America/Los_Angeles","3","98860","1840022294"
"Mirrormont","Mirrormont","WA","Washington","53033","King","53033","King","47.4616","-121.9936","3682","136","polygon","FALSE","FALSE","America/Los_Angeles","3","98027","1840037876"
"Town and Country","Town and Country","WA","Washington","53063","Spokane","53063","Spokane","47.7259","-117.4221","5001","1607","polygon","FALSE","FALSE","America/Los_Angeles","3","99208","1840037888"
"Snoqualmie","Snoqualmie","WA","Washington","53033","King","53033","King","47.5293","-121.8412","26054.0","725","polygon","FALSE","TRUE","America/Los_Angeles","3","98065","1840021119"
"East Cathlamet","East Cathlamet","WA","Washington","53069","Wahkiakum","53069","Wahkiakum","46.1968","-123.3580","503","113","polygon","FALSE","FALSE","America/Los_Angeles","3","98612","1840037849"
"Salmon Creek","Salmon Creek","WA","Washington","53011","Clark","53011","Clark","45.7099","-122.6632","21068","1281","polygon","FALSE","FALSE","America/Los_Angeles","3","98686 98685","1840018520"
"Tacoma","Tacoma","WA","Washington","53053","Pierce","53053","Pierce","47.2431","-122.4531","213418","1657","polygon","FALSE","TRUE","America/Los_Angeles","2","98422 98421 98402 98403 98404 98405 98408 98409 98406 98407 98465 98416 98418 98444 98401 98411 98412 98413 98415 98417 98419 98471 98481 98490","1840021129"
"Loomis","Loomis","WA","Washington","53047","Okanogan","53047","Okanogan","48.8235","-119.6398","117","52","polygon","FALSE","FALSE","America/Los_Angeles","3","98827","1840025235"
"Brush Prairie","Brush Prairie","WA","Washington","53011","Clark","53011","Clark","45.7250","-122.5483","2783","139","polygon","FALSE","FALSE","America/Los_Angeles","3","98606 98662","1840017398"
"Nespelem","Nespelem","WA","Washington","53047","Okanogan","53047","Okanogan","48.1670","-118.9722","313","622","polygon","FALSE","TRUE","America/Los_Angeles","3","99155","1840022268"
"Shadow Lake","Shadow Lake","WA","Washington","53033","King","53033","King","47.4017","-122.0764","2655","197","polygon","FALSE","TRUE","America/Los_Angeles","3","98058 98038","1840042051"
"Concrete","Concrete","WA","Washington","53057","Skagit","53057","Skagit","48.5371","-121.7512","729","241","polygon","FALSE","TRUE","America/Los_Angeles","3","98237","1840022283"
"Ruston","Ruston","WA","Washington","53053","Pierce","53053","Pierce","47.2982","-122.5100","828","1202","polygon","FALSE","TRUE","America/Los_Angeles","3","98407","1840021132"
"Marrowstone","Marrowstone","WA","Washington","53031","Jefferson","53031","Jefferson","48.0568","-122.6933","1084","66","polygon","FALSE","FALSE","America/Los_Angeles","3","98358","1840037856"
"Lake Cavanaugh","Lake Cavanaugh","WA","Washington","53057","Skagit","53057","Skagit","48.3225","-122.0122","179","89","polygon","FALSE","FALSE","America/Los_Angeles","3","98274","1840037851"
"Sequim","Sequim","WA","Washington","53009","Clallam","53009","Clallam","48.0747","-123.0944","20750.0","432","polygon","FALSE","TRUE","America/Los_Angeles","3","98382","1840021076"
"Moses Lake","Moses Lake","WA","Washington","53025","Grant","53025","Grant","47.1284","-119.2741","37774.0","499","polygon","FALSE","TRUE","America/Los_Angeles","3","98837","1840019817"
"Othello","Othello","WA","Washington","53001","Adams","53001","Adams","46.8222","-119.1651","12375.0","790","polygon","FALSE","TRUE","America/Los_Angeles","3","99344","1840019862"
"Enumclaw","Enumclaw","WA","Washington","53033","King","53033","King","47.2017","-121.9897","11784","878","polygon","FALSE","TRUE","America/Los_Angeles","3","98022","1840019825"
"Enetai","Enetai","WA","Washington","53035","Kitsap","53035","Kitsap","47.5885","-122.6058","2231","838","polygon","FALSE","FALSE","America/Los_Angeles","3","98310","1840023794"
"Clinton","Clinton","WA","Washington","53029","Island","53029","Island","47.9731","-122.3577","811","309","polygon","FALSE","FALSE","America/Los_Angeles","3","98236","1840037632"
"Marietta-Alderwood","Marietta-Alderwood","WA","Washington","53073","Whatcom","53073","Whatcom","48.7932","-122.5566","4495","294","polygon","FALSE","TRUE","America/Los_Angeles","3","98225 98226","1840073928"
"Sunnyslope","Sunnyslope","WA","Washington","53007","Chelan","53007","Chelan","47.4913","-120.3493","3641","175","polygon","FALSE","FALSE","America/Los_Angeles","3","98801","1840136960"
"Selah","Selah","WA","Washington","53077","Yakima","53077","Yakima","46.6482","-120.5389","7859","662","polygon","FALSE","TRUE","America/Los_Angeles","3","98942","1840021149"
"Five Corners","Five Corners","WA","Washington","53011","Clark","53011","Clark","45.6883","-122.5738","18405","1221","polygon","FALSE","FALSE","America/Los_Angeles","3","98662","1840037869"
"Normandy Park","Normandy Park","WA","Washington","53033","King","53033","King","47.4344","-122.3436","6649","1027","polygon","FALSE","TRUE","America/Los_Angeles","3","98166","1840019832"
"Graham","Graham","WA","Washington","53053","Pierce","53053","Pierce","47.0407","-122.2757","26939","297","polygon","FALSE","FALSE","America/Los_Angeles","3","98338","1840017365"
"Packwood","Packwood","WA","Washington","53041","Lewis","53041","Lewis","46.6085","-121.6702","230","89","polygon","FALSE","FALSE","America/Los_Angeles","3","98361","1840025265"
"Finley","Finley","WA","Washington","53005","Benton","53005","Benton","46.1697","-119.0446","6015","201","polygon","FALSE","FALSE","America/Los_Angeles","3","99337","1840017380"
"Medina","Medina","WA","Washington","53033","King","53033","King","47.6256","-122.2338","3267","879","polygon","FALSE","TRUE","America/Los_Angeles","3","98039","1840019829"
"Summit","Summit","WA","Washington","53053","Pierce","53053","Pierce","47.1694","-122.3628","7876","597","polygon","FALSE","FALSE","America/Los_Angeles","3","98371 98373 98446","1840018456"
"Sudden Valley","Sudden Valley","WA","Washington","53073","Whatcom","53073","Whatcom","48.7199","-122.3468","7621","470","polygon","FALSE","FALSE","America/Los_Angeles","3","98229","1840037740"
"Gleed","Gleed","WA","Washington","53077","Yakima","53077","Yakima","46.6594","-120.6025","2474","176","polygon","FALSE","FALSE","America/Los_Angeles","3","98937 98908","1840017370"
"Oyehut","Oyehut","WA","Washington","53027","Grays Harbor","53027","Grays Harbor","47.0233","-124.1632","0","0","polygon","FALSE","FALSE","America/Los_Angeles","3","98550","1840037697"
"Ridgefield","Ridgefield","WA","Washington","53011","Clark","53011","Clark","45.8116","-122.7052","7117.0","422","polygon","FALSE","TRUE","America/Los_Angeles","3","98642","1840019909"
"Nisqually Indian Community","Nisqually Indian Community","WA","Washington","53067","Thurston","53067","Thurston","47.0178","-122.6728","690","94","polygon","FALSE","TRUE","America/Los_Angeles","3","98513","1840074509"
"Kettle Falls","Kettle Falls","WA","Washington","53065","Stevens","53065","Stevens","48.6055","-118.0620","1611","585","polygon","FALSE","TRUE","America/Los_Angeles","3","99141","1840019764"
"Edison","Edison","WA","Washington","53057","Skagit","53057","Skagit","48.5602","-122.4310","156","104","polygon","FALSE","FALSE","America/Los_Angeles","3","98232","1840017314"
"Fox Island","Fox Island","WA","Washington","53053","Pierce","53053","Pierce","47.2475","-122.6255","3848","286","polygon","FALSE","FALSE","America/Los_Angeles","3","98333","1840037870"
"Baring","Baring","WA","Washington","53033","King","53033","King","47.7661","-121.4803","173","64","polygon","FALSE","FALSE","America/Los_Angeles","3","98224","1840017339"
"Wallula","Wallula","WA","Washington","53071","Walla Walla","53071","Walla Walla","46.0847","-118.9056","329","1212","polygon","FALSE","FALSE","America/Los_Angeles","3","99363","1840018489"
"Leavenworth","Leavenworth","WA","Washington","53007","Chelan","53007","Chelan","47.5948","-120.6633","3332.0","580","polygon","FALSE","TRUE","America/Los_Angeles","3","98826","1840019778"
"Harrington","Harrington","WA","Washington","53043","Lincoln","53043","Lincoln","47.4802","-118.2552","411","404","polygon","FALSE","TRUE","America/Los_Angeles","3","99134","1840019819"
"Alderwood Manor","Alderwood Manor","WA","Washington","53061","Snohomish","53061","Snohomish","47.8147","-122.2676","8817","1711","polygon","FALSE","FALSE","America/Los_Angeles","3","98036","1840017323"
"Ahtanum","Ahtanum","WA","Washington","53077","Yakima","53077","Yakima","46.5583","-120.6109","3076","171","polygon","FALSE","FALSE","America/Los_Angeles","3","98903 98908 98909","1840017368"
"Machias","Machias","WA","Washington","53061","Snohomish","53061","Snohomish","47.9917","-122.0515","886","139","polygon","FALSE","FALSE","America/Los_Angeles","3","98258 98290","1840017325"
"Four Lakes","Four Lakes","WA","Washington","53063","Spokane","53063","Spokane","47.5582","-117.5891","403","46","polygon","FALSE","FALSE","America/Los_Angeles","3","99004 99014","1840023784"
"Washtucna","Washtucna","WA","Washington","53001","Adams","53001","Adams","46.7538","-118.3106","204","120","polygon","FALSE","TRUE","America/Los_Angeles","3","99371","1840022312"
"Allyn","Allyn","WA","Washington","53045","Mason","53045","Mason","47.3863","-122.8386","2650","640","polygon","FALSE","FALSE","America/Los_Angeles","3","98524","1840025251"
"Union Gap","Union Gap","WA","Washington","53077","Yakima","53077","Yakima","46.5567","-120.4977","6161","426","polygon","FALSE","TRUE","America/Los_Angeles","3","98903","1840021152"
"Chinook","Chinook","WA","Washington","53049","Pacific","53049","Pacific","46.2755","-123.9425","300","114","polygon","FALSE","FALSE","America/Los_Angeles","3","98624 98614","1840017374"
"Port Hadlock-Irondale","Port Hadlock-Irondale","WA","Washington","53031","Jefferson","53031","Jefferson","48.0316","-122.7890","3765","217","polygon","FALSE","TRUE","America/Los_Angeles","3","98325 98368 98339","1840074571"
"Mount Vernon","Mount Vernon","WA","Washington","53057","Skagit","53057","Skagit","48.4202","-122.3116","69528.0","1099","polygon","FALSE","TRUE","America/Los_Angeles","3","98274 98273","1840019774"
"Ronald","Ronald","WA","Washington","53037","Kittitas","53037","Kittitas","47.2338","-121.0335","284","118","polygon","FALSE","FALSE","America/Los_Angeles","3","98940","1840018438"
"Amanda Park","Amanda Park","WA","Washington","53027","Grays Harbor","53027","Grays Harbor","47.4532","-123.9194","119","5","polygon","FALSE","FALSE","America/Los_Angeles","3","98526","1840023816"
"Boulevard Park","Boulevard Park","WA","Washington","53033","King","53033","King","47.5135","-122.3159","3916","1264","polygon","FALSE","FALSE","America/Los_Angeles","3","98108 98168","1840037519"
"Boyds","Boyds","WA","Washington","53019","Ferry","53019","Ferry","48.7245","-118.1321","76","150","polygon","FALSE","FALSE","America/Los_Angeles","3","99141","1840026091"
"Deer Park","Deer Park","WA","Washington","53063","Spokane","53063","Spokane","47.9642","-117.4397","3868.0","229","polygon","FALSE","TRUE","America/Los_Angeles","3","99006","1840018400"
"SeaTac","SeaTac","WA","Washington","53033","King","53033","King","47.4445","-122.2986","29140","1126","polygon","FALSE","TRUE","America/Los_Angeles","3","98158 98148 98198 98168 98188 98131","1840021116"
"Millwood","Millwood","WA","Washington","53063","Spokane","53063","Spokane","47.6856","-117.2806","1784","989","polygon","FALSE","TRUE","America/Los_Angeles","3","99206 99212","1840022289"
"Dixie","Dixie","WA","Washington","53071","Walla Walla","53071","Walla Walla","46.1392","-118.1480","256","182","polygon","FALSE","FALSE","America/Los_Angeles","3","99329 99361","1840018487"
"Morton","Morton","WA","Washington","53041","Lewis","53041","Lewis","46.5575","-122.2815","1159","544","polygon","FALSE","TRUE","America/Los_Angeles","3","98356","1840019882"
"Kahlotus","Kahlotus","WA","Washington","53021","Franklin","53021","Franklin","46.6437","-118.5556","199","182","polygon","FALSE","TRUE","America/Los_Angeles","3","99335","1840018478"
"Cherry Grove","Cherry Grove","WA","Washington","53011","Clark","53011","Clark","45.8021","-122.5764","689","112","polygon","FALSE","FALSE","America/Los_Angeles","3","98604","1840037538"
"Greenwater","Greenwater","WA","Washington","53053","Pierce","53053","Pierce","47.1465","-121.6320","28","7","polygon","FALSE","FALSE","America/Los_Angeles","3","98022","1840017343"
"Kendall","Kendall","WA","Washington","53073","Whatcom","53073","Whatcom","48.9168","-122.1383","37","17","polygon","FALSE","FALSE","America/Los_Angeles","3","98244 98266","1840017293"
"Startup","Startup","WA","Washington","53061","Snohomish","53061","Snohomish","47.8671","-121.7495","683","64","polygon","FALSE","FALSE","America/Los_Angeles","3","98294 98293","1840018380"
"Lamont","Lamont","WA","Washington","53075","Whitman","53075","Whitman","47.2007","-117.9049","74","98","polygon","FALSE","TRUE","America/Los_Angeles","3","99017","1840021142"
"Valley","Valley","WA","Washington","53065","Stevens","53065","Stevens","48.1730","-117.7244","171","154","polygon","FALSE","FALSE","America/Los_Angeles","3","99181","1840025241"
"Brady","Brady","WA","Washington","53027","Grays Harbor","53027","Grays Harbor","47.0064","-123.5321","360","22","polygon","FALSE","FALSE","America/Los_Angeles","3","98563","1840017357"
"Clear Lake","Clear Lake","WA","Washington","53057","Skagit","53057","Skagit","48.4561","-122.2378","990","201","polygon","FALSE","FALSE","America/Los_Angeles","3","98235 98284 98273","1840023932"
"Redmond","Redmond","WA","Washington","53033","King","53033","King","47.6762","-122.1169","64291","1498","polygon","FALSE","TRUE","America/Los_Angeles","3","98052 98073","1840019835"
"Mountlake Terrace","Mountlake Terrace","WA","Washington","53061","Snohomish","53061","Snohomish","47.7921","-122.3076","21337","2021","polygon","FALSE","TRUE","America/Los_Angeles","2","98043","1840019792"
"Soap Lake","Soap Lake","WA","Washington","53025","Grant","53025","Grant","47.3914","-119.4892","1579","403","polygon","FALSE","TRUE","America/Los_Angeles","3","98851","1840021102"
"Manchester","Manchester","WA","Washington","53035","Kitsap","53035","Kitsap","47.5519","-122.5517","5447","719","polygon","FALSE","FALSE","America/Los_Angeles","3","98366","1840017336"
"Verlot","Verlot","WA","Washington","53061","Snohomish","53061","Snohomish","48.1002","-121.7679","457","16","polygon","FALSE","FALSE","America/Los_Angeles","3","98252","1840018376"
"Naches","Naches","WA","Washington","53077","Yakima","53077","Yakima","46.7274","-120.6945","827","472","polygon","FALSE","TRUE","America/Los_Angeles","3","98937","1840022318"
"Clover Creek","Clover Creek","WA","Washington","53053","Pierce","53053","Pierce","47.1404","-122.3827","6831","407","polygon","FALSE","TRUE","America/Los_Angeles","3","98445 98446","1840041920"
"Naselle","Naselle","WA","Washington","53049","Pacific","53049","Pacific","46.3650","-123.8013","376","63","polygon","FALSE","FALSE","America/Los_Angeles","3","98638","1840018467"
"Goldendale","Goldendale","WA","Washington","53039","Klickitat","53039","Klickitat","45.8192","-120.8233","3404.0","454","polygon","FALSE","TRUE","America/Los_Angeles","3","98620","1840019911"
"Oak Harbor","Oak Harbor","WA","Washington","53029","Island","53029","Island","48.2965","-122.6331","34663.0","930","polygon","FALSE","TRUE","America/Los_Angeles","3","98277","1840019779"
"Endicott","Endicott","WA","Washington","53075","Whitman","53075","Whitman","46.9282","-117.6867","305","397","polygon","FALSE","TRUE","America/Los_Angeles","3","99125","1840021137"
"Maple Heights-Lake Desire","Maple Heights-Lake Desire","WA","Washington","53033","King","53033","King","47.4441","-122.0973","3442","324","polygon","FALSE","TRUE","America/Los_Angeles","3","98058","1840073925"
"Kingston","Kingston","WA","Washington","53035","Kitsap","53035","Kitsap","47.8014","-122.4989","1875","387","polygon","FALSE","FALSE","America/Los_Angeles","3","98346","1840017338"
"Grays River","Grays River","WA","Washington","53069","Wahkiakum","53069","Wahkiakum","46.3608","-123.5890","425","8","polygon","FALSE","FALSE","America/Los_Angeles","3","98621","1840023877"
"La Grande","La Grande","WA","Washington","53053","Pierce","53053","Pierce","46.8199","-122.2962","118","10","polygon","FALSE","FALSE","America/Los_Angeles","3","98328","1840023834"
"Malott","Malott","WA","Washington","53047","Okanogan","53047","Okanogan","48.2919","-119.6954","592","124","polygon","FALSE","FALSE","America/Los_Angeles","3","98840 98829","1840025236"
"Raymond","Raymond","WA","Washington","53049","Pacific","53049","Pacific","46.6838","-123.7380","4136.0","275","polygon","FALSE","TRUE","America/Los_Angeles","3","98577","1840019881"
"Quincy","Quincy","WA","Washington","53025","Grant","53025","Grant","47.2347","-119.8522","7756.0","483","polygon","FALSE","TRUE","America/Los_Angeles","3","98848","1840019818"
"Hamilton","Hamilton","WA","Washington","53057","Skagit","53057","Skagit","48.5282","-121.9834","309","105","polygon","FALSE","TRUE","America/Los_Angeles","3","98255 98284","1840021067"
"Bay Center","Bay Center","WA","Washington","53049","Pacific","53049","Pacific","46.6211","-123.9533","215","88","polygon","FALSE","FALSE","America/Los_Angeles","3","98527","1840017375"
"Riverside","Riverside","WA","Washington","53047","Okanogan","53047","Okanogan","48.5047","-119.5102","273","118","polygon","FALSE","TRUE","America/Los_Angeles","3","98849","1840021059"
"Qui-nai-elt Village","Qui-nai-elt Village","WA","Washington","53027","Grays Harbor","53027","Grays Harbor","47.2502","-124.1903","79","41","polygon","FALSE","TRUE","America/Los_Angeles","3","98587","1840042034"
"Ocean Park","Ocean Park","WA","Washington","53049","Pacific","53049","Pacific","46.4961","-124.0443","1782","227","polygon","FALSE","FALSE","America/Los_Angeles","3","98640 98637","1840018468"
"Bonney Lake","Bonney Lake","WA","Washington","53053","Pierce","53053","Pierce","47.1789","-122.1698","20675","984","polygon","FALSE","TRUE","America/Los_Angeles","3","98391","1840018454"
"Garrett","Garrett","WA","Washington","53071","Walla Walla","53071","Walla Walla","46.0633","-118.3876","1531","330","polygon","FALSE","FALSE","America/Los_Angeles","3","99362","1840017384"
"Warm Beach","Warm Beach","WA","Washington","53061","Snohomish","53061","Snohomish","48.1649","-122.3442","2495","236","polygon","FALSE","FALSE","America/Los_Angeles","3","98292","1840018377"
"Conway","Conway","WA","Washington","53057","Skagit","53057","Skagit","48.3357","-122.3444","11","18","polygon","FALSE","FALSE","America/Los_Angeles","3","98238","1840017311"
"Eastmont","Eastmont","WA","Washington","53061","Snohomish","53061","Snohomish","47.8968","-122.1817","21951","1665","polygon","FALSE","FALSE","America/Los_Angeles","3","98208","1840139116"
"Ephrata","Ephrata","WA","Washington","53025","Grant","53025","Grant","47.3119","-119.5344","7275.0","298","polygon","FALSE","TRUE","America/Los_Angeles","3","98823","1840019813"
"Tumwater","Tumwater","WA","Washington","53067","Thurston","53067","Thurston","46.9890","-122.9173","22973","509","polygon","FALSE","TRUE","America/Los_Angeles","3","98501 98512","1840021145"
"Lake Holm","Lake Holm","WA","Washington","53033","King","53033","King","47.2986","-122.1335","3263","150","polygon","FALSE","TRUE","America/Los_Angeles","3","98092","1840041966"
"Twisp","Twisp","WA","Washington","53047","Okanogan","53047","Okanogan","48.3618","-120.1169","956","314","polygon","FALSE","TRUE","America/Los_Angeles","3","98856","1840022271"
"Keyport","Keyport","WA","Washington","53035","Kitsap","53035","Kitsap","47.6993","-122.6232","457","348","polygon","FALSE","FALSE","America/Los_Angeles","3","98345","1840023797"
"Starbuck","Starbuck","WA","Washington","53013","Columbia","53013","Columbia","46.5182","-118.1245","131","237","polygon","FALSE","TRUE","America/Los_Angeles","3","99359","1840022325"
"Hansville","Hansville","WA","Washington","53035","Kitsap","53035","Kitsap","47.8978","-122.5579","3809","138","polygon","FALSE","FALSE","America/Los_Angeles","3","98340 98346","1840023796"
"Yelm","Yelm","WA","Washington","53067","Thurston","53067","Thurston","46.9398","-122.6261","16504.0","618","polygon","FALSE","TRUE","America/Los_Angeles","3","98576 98597","1840021146"
"Delmar","Delmar","DE","Delaware","10005","Sussex","10005","Sussex","38.4651","-75.5552","1782","384","polygon","FALSE","TRUE","America/New_York","3","19940","1840006077"
"Farmington","Farmington","DE","Delaware","10001","Kent","10001","Kent","38.8699","-75.5790","115","610","polygon","FALSE","TRUE","America/New_York","3","19950","1840005805"
"Hartly","Hartly","DE","Delaware","10001","Kent","10001","Kent","39.1683","-75.7125","74","504","polygon","FALSE","TRUE","America/New_York","3","19953","1840005808"
"Millville","Millville","DE","Delaware","10005","Sussex","10005","Sussex","38.5353","-75.1287","622","94","polygon","FALSE","TRUE","America/New_York","3","19970 19945 19967","1840006080"
"Rising Sun-Lebanon","Rising Sun-Lebanon","DE","Delaware","10001","Kent","10001","Kent","39.0999","-75.5048","3817","412","polygon","FALSE","TRUE","America/New_York","3","19934 19962 19901","1840073664"
"Magnolia","Magnolia","DE","Delaware","10001","Kent","10001","Kent","39.0714","-75.4760","280","552","polygon","FALSE","TRUE","America/New_York","3","19962","1840005819"
"Elsmere","Elsmere","DE","Delaware","10003","New Castle","10003","New Castle","39.7385","-75.5946","6045","2318","polygon","FALSE","TRUE","America/New_York","2","19804 19805","1840005574"
"Seaford","Seaford","DE","Delaware","10005","Sussex","10005","Sussex","38.6539","-75.6117","7750","571","polygon","FALSE","TRUE","America/New_York","3","19973","1840006071"
"Dagsboro","Dagsboro","DE","Delaware","10005","Sussex","10005","Sussex","38.5466","-75.2467","886","251","polygon","FALSE","TRUE","America/New_York","3","19939","1840006076"
"Bridgeville","Bridgeville","DE","Delaware","10005","Sussex","10005","Sussex","38.7247","-75.6027","3798.0","193","polygon","FALSE","TRUE","America/New_York","3","19933","1840006075"
"Smyrna","Smyrna","DE","Delaware","10001","Kent","10001|10003","Kent|New Castle","39.2922","-75.6076","11584","746","polygon","FALSE","TRUE","America/New_York","3","19977","1840005820"
"New Castle","New Castle","DE","Delaware","10003","New Castle","10003","New Castle","39.6685","-75.5692","5348","612","polygon","FALSE","TRUE","America/New_York","3","19720 19721","1840005577"
"Bethel","Bethel","DE","Delaware","10005","Sussex","10005","Sussex","38.5706","-75.6194","193","186","polygon","FALSE","TRUE","America/New_York","3","19931","1840006073"
"Houston","Houston","DE","Delaware","10001","Kent","10001","Kent","38.9174","-75.5039","401","404","polygon","FALSE","TRUE","America/New_York","3","19954","1840005809"
"Viola","Viola","DE","Delaware","10001","Kent","10001","Kent","39.0429","-75.5714","164","357","polygon","FALSE","TRUE","America/New_York","3","19979","1840003807"
"Newport","Newport","DE","Delaware","10003","New Castle","10003","New Castle","39.7136","-75.6052","1040","915","polygon","FALSE","TRUE","America/New_York","3","19804","1840005582"
"Edgemoor","Edgemoor","DE","Delaware","10003","New Castle","10003","New Castle","39.7551","-75.5070","6178","1278","polygon","FALSE","FALSE","America/New_York","3","19809 19802","1840028608"
"Georgetown","Georgetown","DE","Delaware","10005","Sussex","10005","Sussex","38.6899","-75.3872","10255.0","547","polygon","FALSE","TRUE","America/New_York","3","19947","1840006065"
"Greenwood","Greenwood","DE","Delaware","10005","Sussex","10005","Sussex","38.8069","-75.5907","1097","585","polygon","FALSE","TRUE","America/New_York","3","19950","1840006066"
"Slaughter Beach","Slaughter Beach","DE","Delaware","10005","Sussex","10005","Sussex","38.9143","-75.3085","234","66","polygon","FALSE","TRUE","America/New_York","3","19963","1840006084"
"Blades","Blades","DE","Delaware","10005","Sussex","10005","Sussex","38.6353","-75.6024","1417","984","polygon","FALSE","TRUE","America/New_York","3","19973","1840006074"
"Rehoboth Beach","Rehoboth Beach","DE","Delaware","10005","Sussex","10005","Sussex","38.7168","-75.0843","1496","491","polygon","FALSE","TRUE","America/New_York","3","19971","1840006070"
"Woodside","Woodside","DE","Delaware","10001","Kent","10001","Kent","39.0712","-75.5667","187","511","polygon","FALSE","TRUE","America/New_York","3","19943 19904 19980","1840005821"
"Wilmington","Wilmington","DE","Delaware","10003","New Castle","10003","New Castle","39.7415","-75.5413","71106","2517","polygon","FALSE","TRUE","America/New_York","2","19809 19802 19801 19806 19805 19850 19880 19884 19885 19886 19890 19893 19894 19895 19896 19898 19899","1840005579"
"Rodney Village","Rodney Village","DE","Delaware","10001","Kent","10001","Kent","39.1284","-75.5395","1231","810","polygon","FALSE","FALSE","America/New_York","3","19904","1840005804"
"Frankford","Frankford","DE","Delaware","10005","Sussex","10005","Sussex","38.5215","-75.2342","958","507","polygon","FALSE","TRUE","America/New_York","3","19945","1840006064"
"Glasgow","Glasgow","DE","Delaware","10003","New Castle","10003","New Castle","39.6015","-75.7474","15280","594","polygon","FALSE","FALSE","America/New_York","3","19701 19702","1840005571"
"Cheswold","Cheswold","DE","Delaware","10001","Kent","10001","Kent","39.2189","-75.5883","1582","332","polygon","FALSE","TRUE","America/New_York","3","19936 19901 19904","1840005814"
"Kent Acres","Kent Acres","DE","Delaware","10001","Kent","10001","Kent","39.1325","-75.5160","2369","1077","polygon","FALSE","FALSE","America/New_York","3","19901","1840028609"
"Ardentown","Ardentown","DE","Delaware","10003","New Castle","10003","New Castle","39.8081","-75.4807","269","471","polygon","FALSE","TRUE","America/New_York","3","19810 19703","1840005587"
"Ellendale","Ellendale","DE","Delaware","10005","Sussex","10005","Sussex","38.8103","-75.4250","431","376","polygon","FALSE","TRUE","America/New_York","3","19941","1840006062"
"Laurel","Laurel","DE","Delaware","10005","Sussex","10005","Sussex","38.5696","-75.5688","4320","581","polygon","FALSE","TRUE","America/New_York","3","19956","1840006078"
"Wyoming","Wyoming","DE","Delaware","10001","Kent","10001","Kent","39.1147","-75.5631","1503","557","polygon","FALSE","TRUE","America/New_York","3","19934","1840005822"
"Newark","Newark","DE","Delaware","10003","New Castle","10003","New Castle","39.6776","-75.7573","33858","1422","polygon","FALSE","TRUE","America/New_York","3","19713 19711 19717 19716 19725 19726","1840005578"
"Camden","Camden","DE","Delaware","10001","Kent","10001","Kent","39.0992","-75.5570","3493","359","polygon","FALSE","TRUE","America/New_York","3","19934 19904","1840005813"
"Delaware City","Delaware City","DE","Delaware","10003","New Castle","10003","New Castle","39.5743","-75.5939","1828","374","polygon","FALSE","TRUE","America/New_York","3","19706","1840005576"
"South Bethany","South Bethany","DE","Delaware","10005","Sussex","10005","Sussex","38.5161","-75.0591","510","381","polygon","FALSE","TRUE","America/New_York","3","19930","1840006085"
"Riverview","Riverview","DE","Delaware","10001","Kent","10001","Kent","39.0293","-75.5202","2728","291","polygon","FALSE","FALSE","America/New_York","3","19946 19943","1840028613"
"Washington","Washington","DC","District of Columbia","11001","District of Columbia","11001","District of Columbia","38.9047","-77.0163","5289420.0","4382","polygon","FALSE","TRUE","America/New_York","1","20010 20011 20012 20015 20228 20520 20307 20418 20319 20024 20510 20593 20020 20427 20540 20240 20245 20204 20202 20390 20006 20005 20004 20003 20002 20009 20008 20535 20317 20405 20057 20052 20053 20017 20018 20565 20566 20560 20260 20064 20551 20553 20019 20230 20373 20007 20032 20036 20037 20506 20001 20045 20016 20013 20022 20026 20027 20029 20030 20033 20035 20038 20039 20040 20042 20043 20044 20047 20049 20050 20055 20056 20059 20060 20061 20062 20063 20065 20066 20067 20068 20071 20073 20074 20075 20076 20077 20078 20080 20081 20082 20090 20091 20201 20203 20207 20208 20210 20211 20212 20213 20214 20215 20216 20217 20218 20219 20220 20221 20222 20223 20224 20226 20227 20229 20232 20233 20235 20237 20238 20239 20241 20242 20244 20250 20251 20252 20254 20261 20262 20265 20266 20268 20270 20277 20289 20299 20301 20303 20306 20310 20314 20318 20330 20340 20350 20355 20370 20372 20374 20375 20376 20380 20388 20389 20391 20392 20393 20394 20395 20398 20401 20402 20403 20404 20407 20408 20410 20411 20412 20413 20414 20415 20416 20417 20419 20420 20421 20422 20423 20424 20425 20426 20428 20429 20431 20433 20434 20435 20436 20437 20439 20440 20441 20442 20444 20447 20451 20453 20456 20460 20463 20468 20469 20470 20472 20500 20501 20502 20503 20504 20505 20507 20508 20509 20511 20515 20521 20522 20523 20524 20525 20526 20527 20528 20529 20530 20531 20533 20534 20536 20537 20538 20539 20541 20542 20543 20544 20546 20547 20548 20549 20552 20554 20555 20557 20559 20570 20571 20572 20573 20575 20576 20577 20578 20579 20580 20581 20585 20586 20588 20590 20591 20594 20597 20598 20599 56901 56902 56904 56908 56915 56920 56933 56935 56944 56945 56950 56965 56967 56972 56998 56999","1840006060"
"Nelson","Nelson","WI","Wisconsin","55011","Buffalo","55011","Buffalo","44.4214","-92.0044","351","101","polygon","FALSE","TRUE","America/Chicago","3","54756","1840002382"
"Chenequa","Chenequa","WI","Wisconsin","55133","Waukesha","55133","Waukesha","43.1229","-88.3838","593","66","polygon","FALSE","TRUE","America/Chicago","3","53058 53029","1840003016"
"Tichigan","Tichigan","WI","Wisconsin","55101","Racine","55101","Racine","42.8088","-88.2150","5355","182","polygon","FALSE","FALSE","America/Chicago","3","53185","1840006920"
"Wonewoc","Wonewoc","WI","Wisconsin","55057","Juneau","55057","Juneau","43.6531","-90.2239","792","273","polygon","FALSE","TRUE","America/Chicago","3","53968","1840002225"
"Black River Falls","Black River Falls","WI","Wisconsin","55053","Jackson","55053","Jackson","44.2981","-90.8419","5490.0","328","polygon","FALSE","TRUE","America/Chicago","3","54615","1840002397"
"Three Lakes","Three Lakes","WI","Wisconsin","55085","Oneida","55085","Oneida","45.8047","-89.1708","446","61","polygon","FALSE","FALSE","America/Chicago","3","54562","1840025294"
"North Prairie","North Prairie","WI","Wisconsin","55133","Waukesha","55133","Waukesha","42.9357","-88.4038","2222","314","polygon","FALSE","TRUE","America/Chicago","3","53153","1840003026"
"Almond","Almond","WI","Wisconsin","55097","Portage","55097","Portage","44.2607","-89.4087","432","159","polygon","FALSE","TRUE","America/Chicago","3","54909","1840002323"
"Hustisford","Hustisford","WI","Wisconsin","55027","Dodge","55027","Dodge","43.3442","-88.6033","1083","375","polygon","FALSE","TRUE","America/Chicago","3","53034","1840002732"
"Birnamwood","Birnamwood","WI","Wisconsin","55115","Shawano","55115|55073","Shawano|Marathon","44.9319","-89.2094","788","138","polygon","FALSE","TRUE","America/Chicago","3","54414","1840002262"
"Whitehall","Whitehall","WI","Wisconsin","55121","Trempealeau","55121","Trempealeau","44.3705","-91.3476","1583","106","polygon","FALSE","TRUE","America/Chicago","3","54773 54747","1840002386"
"Lomira","Lomira","WI","Wisconsin","55027","Dodge","55027","Dodge","43.5945","-88.4421","2374","429","polygon","FALSE","TRUE","America/Chicago","3","53048","1840002740"
"Bloomer","Bloomer","WI","Wisconsin","55017","Chippewa","55017","Chippewa","45.1030","-91.4913","3309.0","463","polygon","FALSE","TRUE","America/Chicago","3","54724","1840002106"
"Whitewater","Whitewater","WI","Wisconsin","55127","Walworth","55127|55055","Walworth|Jefferson","42.8372","-88.7340","14374.0","634","polygon","FALSE","TRUE","America/Chicago","3","53190","1840002476"
"Amherst","Amherst","WI","Wisconsin","55097","Portage","55097","Portage","44.4475","-89.2832","1039","313","polygon","FALSE","TRUE","America/Chicago","3","54406","1840002324"
"River Falls","River Falls","WI","Wisconsin","55093","Pierce","55093|55109","Pierce|St. Croix","44.8608","-92.6244","15873.0","858","polygon","FALSE","TRUE","America/Chicago","3","54022","1840002289"
"Greendale","Greendale","WI","Wisconsin","55079","Milwaukee","55079","Milwaukee","42.9370","-88.0018","14159","982","polygon","FALSE","TRUE","America/Chicago","3","53129","1840003038"
"Berlin","Berlin","WI","Wisconsin","55047","Green Lake","55047|55137","Green Lake|Waushara","43.9704","-88.9505","4769.0","359","polygon","FALSE","TRUE","America/Chicago","3","54923","1840002590"
"Burnett","Burnett","WI","Wisconsin","55027","Dodge","55027","Dodge","43.5065","-88.7085","242","373","polygon","FALSE","FALSE","America/Chicago","3","53922","1840024126"
"Wausau","Wausau","WI","Wisconsin","55073","Marathon","55073","Marathon","44.9615","-89.6457","73933.0","774","polygon","FALSE","TRUE","America/Chicago","3","54401 54403","1840002163"
"Hillsboro","Hillsboro","WI","Wisconsin","55123","Vernon","55123","Vernon","43.6559","-90.3365","1402","385","polygon","FALSE","TRUE","America/Chicago","3","54634","1840002691"
"Whitelaw","Whitelaw","WI","Wisconsin","55071","Manitowoc","55071","Manitowoc","44.1452","-87.8281","740","543","polygon","FALSE","TRUE","America/Chicago","3","54247","1840002208"
"Oconto","Oconto","WI","Wisconsin","55083","Oconto","55083","Oconto","44.8918","-87.8692","4196.0","252","polygon","FALSE","TRUE","America/Chicago","3","54153","1840001575"
"Nashotah","Nashotah","WI","Wisconsin","55133","Waukesha","55133","Waukesha","43.0938","-88.4037","1367","322","polygon","FALSE","TRUE","America/Chicago","3","53058","1840003024"
"Ferryville","Ferryville","WI","Wisconsin","55023","Crawford","55023","Crawford","43.3516","-91.0935","175","34","polygon","FALSE","TRUE","America/Chicago","3","54628","1840002885"
"Sun Prairie","Sun Prairie","WI","Wisconsin","55025","Dane","55025","Dane","43.1827","-89.2357","32894","1033","polygon","FALSE","TRUE","America/Chicago","3","53590 53596","1840002902"
"Eleva","Eleva","WI","Wisconsin","55121","Trempealeau","55121","Trempealeau","44.5763","-91.4705","665","451","polygon","FALSE","TRUE","America/Chicago","3","54738","1840002389"
"Wales","Wales","WI","Wisconsin","55133","Waukesha","55133","Waukesha","43.0042","-88.3739","2577","306","polygon","FALSE","TRUE","America/Chicago","3","53183","1840003007"
"Ashippun","Ashippun","WI","Wisconsin","55027","Dodge","55027","Dodge","43.2182","-88.5159","1030","386","polygon","FALSE","FALSE","America/Chicago","3","53066 53036 53003","1840025434"
"New Odanah","New Odanah","WI","Wisconsin","55003","Ashland","55003","Ashland","46.5986","-90.6618","466","47","polygon","FALSE","TRUE","America/Chicago","3","54806 54861","1840042189"
"Pulcifer","Pulcifer","WI","Wisconsin","55115","Shawano","55115","Shawano","44.8476","-88.3592","117","43","polygon","FALSE","FALSE","America/Chicago","3","54111 54124","1840023924"
"Milladore","Milladore","WI","Wisconsin","55141","Wood","55141","Wood","44.6057","-89.8549","267","100","polygon","FALSE","TRUE","America/Chicago","3","54454","1840002337"
"Oconomowoc Lake","Oconomowoc Lake","WI","Wisconsin","55133","Waukesha","55133","Waukesha","43.0975","-88.4521","595","119","polygon","FALSE","TRUE","America/Chicago","3","53066","1840003028"
"Maribel","Maribel","WI","Wisconsin","55071","Manitowoc","55071","Manitowoc","44.2775","-87.8025","336","113","polygon","FALSE","TRUE","America/Chicago","3","54227","1840002214"
"Van Dyne","Van Dyne","WI","Wisconsin","55039","Fond du Lac","55039","Fond du Lac","43.8862","-88.5012","190","93","polygon","FALSE","FALSE","America/Chicago","3","54979","1840025421"
"Saukville","Saukville","WI","Wisconsin","55089","Ozaukee","55089","Ozaukee","43.3847","-87.9439","4419","484","polygon","FALSE","TRUE","America/Chicago","3","53080","1840002827"
"Wild Rose","Wild Rose","WI","Wisconsin","55137","Waushara","55137","Waushara","44.1788","-89.2442","703","186","polygon","FALSE","TRUE","America/Chicago","3","54984","1840002236"
"Patch Grove","Patch Grove","WI","Wisconsin","55043","Grant","55043","Grant","42.9406","-90.9725","197","200","polygon","FALSE","TRUE","America/Chicago","3","53817 53804","1840002980"
"New Holstein","New Holstein","WI","Wisconsin","55015","Calumet","55015","Calumet","43.9491","-88.0942","3115","479","polygon","FALSE","TRUE","America/Chicago","3","53061 53062","1840002522"
"Hewitt","Hewitt","WI","Wisconsin","55141","Wood","55141","Wood","44.6425","-90.1048","795","329","polygon","FALSE","TRUE","America/Chicago","3","54441","1840002334"
"Eastman","Eastman","WI","Wisconsin","55023","Crawford","55023","Crawford","43.1622","-91.0254","407","43","polygon","FALSE","TRUE","America/Chicago","3","54626","1840002887"
"Princeton","Princeton","WI","Wisconsin","55047","Green Lake","55047","Green Lake","43.8527","-89.1305","1170","291","polygon","FALSE","TRUE","America/Chicago","3","54968","1840002593"
"Peshtigo","Peshtigo","WI","Wisconsin","55075","Marinette","55075","Marinette","45.0556","-87.7476","3314.0","432","polygon","FALSE","TRUE","America/Chicago","3","54157","1840003932"
"Long Lake","Long Lake","WI","Wisconsin","55037","Florence","55037","Florence","45.8431","-88.6673","54","78","polygon","FALSE","FALSE","America/Chicago","3","54542","1840025289"
"Mishicot","Mishicot","WI","Wisconsin","55071","Manitowoc","55071","Manitowoc","44.2303","-87.6422","1388","210","polygon","FALSE","TRUE","America/Chicago","3","54228","1840002215"
"Johnson Creek","Johnson Creek","WI","Wisconsin","55055","Jefferson","55055","Jefferson","43.0812","-88.7702","2976.0","385","polygon","FALSE","TRUE","America/Chicago","3","53038 53094","1840003002"
"Kohler","Kohler","WI","Wisconsin","55117","Sheboygan","55117","Sheboygan","43.7364","-87.7795","2081","150","polygon","FALSE","TRUE","America/Chicago","3","53081 53044","1840002620"
"Seymour","Seymour","WI","Wisconsin","55087","Outagamie","55087","Outagamie","44.5142","-88.3271","3508.0","496","polygon","FALSE","TRUE","America/Chicago","3","54165","1840002410"
"Camp Douglas","Camp Douglas","WI","Wisconsin","55057","Juneau","55057","Juneau","43.9197","-90.2697","624","240","polygon","FALSE","TRUE","America/Chicago","3","54618","1840002228"
"Lake Ripley","Lake Ripley","WI","Wisconsin","55055","Jefferson","55055","Jefferson","43.0045","-88.9829","1642","189","polygon","FALSE","FALSE","America/Chicago","3","53523","1840004351"
"Hammond","Hammond","WI","Wisconsin","55109","St. Croix","55109","St. Croix","44.9691","-92.4381","1891","338","polygon","FALSE","TRUE","America/Chicago","3","54015","1840002134"
"Wind Point","Wind Point","WI","Wisconsin","55101","Racine","55101","Racine","42.7814","-87.7721","1707","520","polygon","FALSE","TRUE","America/Chicago","3","53402","1840002489"
"Lewis","Lewis","WI","Wisconsin","55095","Polk","55095","Polk","45.7159","-92.3965","129","33","polygon","FALSE","FALSE","America/Chicago","3","54837","1840025299"
"Wautoma","Wautoma","WI","Wisconsin","55137","Waushara","55137","Waushara","44.0667","-89.2916","2483.0","295","polygon","FALSE","TRUE","America/Chicago","3","54982","1840002235"
"Kewaunee","Kewaunee","WI","Wisconsin","55061","Kewaunee","55061","Kewaunee","44.4607","-87.5133","2547.0","313","polygon","FALSE","TRUE","America/Chicago","3","54216","1840002364"
"North Bay","North Bay","WI","Wisconsin","55101","Racine","55101","Racine","42.7644","-87.7812","238","871","polygon","FALSE","TRUE","America/Chicago","3","53402","1840002492"
"Iron Belt","Iron Belt","WI","Wisconsin","55051","Iron","55051","Iron","46.4031","-90.3193","200","31","polygon","FALSE","FALSE","America/Chicago","3","54536","1840025270"
"DeForest","DeForest","WI","Wisconsin","55025","Dane","55025","Dane","43.2302","-89.3437","10340","489","polygon","FALSE","FALSE","America/Chicago","3","53598 53532","1840037935"
"Bancroft","Bancroft","WI","Wisconsin","55097","Portage","55097","Portage","44.3093","-89.5071","492","37","polygon","FALSE","FALSE","America/Chicago","3","54921","1840024098"
"Poy Sippi","Poy Sippi","WI","Wisconsin","55137","Waushara","55137","Waushara","44.1360","-88.9963","328","173","polygon","FALSE","FALSE","America/Chicago","3","54967","1840023995"
"Plum City","Plum City","WI","Wisconsin","55093","Pierce","55093","Pierce","44.6338","-92.1918","604","223","polygon","FALSE","TRUE","America/Chicago","3","54761","1840002287"
"Rockdale","Rockdale","WI","Wisconsin","55025","Dane","55025","Dane","42.9717","-89.0318","216","296","polygon","FALSE","TRUE","America/Chicago","3","53523","1840002923"
"Wyeville","Wyeville","WI","Wisconsin","55081","Monroe","55081","Monroe","44.0279","-90.3861","143","97","polygon","FALSE","TRUE","America/Chicago","3","54666 54660","1840002569"
"Wauwatosa","Wauwatosa","WI","Wisconsin","55079","Milwaukee","55079","Milwaukee","43.0615","-88.0347","48277","1409","polygon","FALSE","TRUE","America/Chicago","3","53213 53225 53226 53222","1840003033"
"Casco","Casco","WI","Wisconsin","55061","Kewaunee","55061","Kewaunee","44.5558","-87.6198","584","338","polygon","FALSE","TRUE","America/Chicago","3","54205","1840002365"
"Centuria","Centuria","WI","Wisconsin","55095","Polk","55095","Polk","45.4497","-92.5579","914","207","polygon","FALSE","TRUE","America/Chicago","3","54824","1840002051"
"Mole Lake","Mole Lake","WI","Wisconsin","55041","Forest","55041","Forest","45.4859","-88.9823","552","57","polygon","FALSE","FALSE","America/Chicago","3","54520","1840026104"
"Nekoosa","Nekoosa","WI","Wisconsin","55141","Wood","55141","Wood","44.3135","-89.9073","2429","276","polygon","FALSE","TRUE","America/Chicago","3","54457","1840002338"
"Greenleaf","Greenleaf","WI","Wisconsin","55009","Brown","55009","Brown","44.3170","-88.0972","946","354","polygon","FALSE","FALSE","America/Chicago","3","54126","1840025357"
"Junction City","Junction City","WI","Wisconsin","55097","Portage","55097","Portage","44.5930","-89.7679","431","110","polygon","FALSE","TRUE","America/Chicago","3","54443","1840002322"
"Rockland","Rockland","WI","Wisconsin","55063","La Crosse","55063","La Crosse","43.9075","-90.9165","647","372","polygon","FALSE","TRUE","America/Chicago","3","54656 54653 54614","1840002580"
"Chili","Chili","WI","Wisconsin","55019","Clark","55019","Clark","44.6296","-90.3583","255","75","polygon","FALSE","FALSE","America/Chicago","3","54420","1840025324"
"Plover","Plover","WI","Wisconsin","55097","Portage","55097","Portage","44.4614","-89.5382","12772","465","polygon","FALSE","TRUE","America/Chicago","3","54467 54492","1840002328"
"Bell Center","Bell Center","WI","Wisconsin","55023","Crawford","55023","Crawford","43.2916","-90.8256","112","7","polygon","FALSE","TRUE","America/Chicago","3","54631","1840002886"
"Rome","Rome","WI","Wisconsin","55055","Jefferson","55055","Jefferson","42.9823","-88.6389","782","81","polygon","FALSE","FALSE","America/Chicago","3","53137 53178","1840004352"
"Lake Delton","Lake Delton","WI","Wisconsin","55111","Sauk","55111","Sauk","43.5932","-89.7841","5624.0","154","polygon","FALSE","TRUE","America/Chicago","3","53913 53965 53940","1840002718"
"Cadott","Cadott","WI","Wisconsin","55017","Chippewa","55017","Chippewa","44.9502","-91.1532","1428","162","polygon","FALSE","TRUE","America/Chicago","3","54727","1840002107"
"Cornell","Cornell","WI","Wisconsin","55017","Chippewa","55017","Chippewa","45.1632","-91.1497","1419","144","polygon","FALSE","TRUE","America/Chicago","3","54732","1840002109"
"Oakdale","Oakdale","WI","Wisconsin","55081","Monroe","55081","Monroe","43.9620","-90.3789","292","145","polygon","FALSE","TRUE","America/Chicago","3","54660 54649","1840002574"
"Galesville","Galesville","WI","Wisconsin","55121","Trempealeau","55121","Trempealeau","44.0839","-91.3580","1577","468","polygon","FALSE","TRUE","America/Chicago","3","54630","1840002387"
"Middle Village","Middle Village","WI","Wisconsin","55078","Menominee","55078|55115","Menominee|Shawano","44.9347","-88.7334","245","15","polygon","FALSE","FALSE","America/Chicago","3","54135 54150","1840038094"
"Muskego","Muskego","WI","Wisconsin","55133","Waukesha","55133","Waukesha","42.8860","-88.1291","24996","305","polygon","FALSE","TRUE","America/Chicago","3","53150","1840003023"
"Whitefish Bay","Whitefish Bay","WI","Wisconsin","55079","Milwaukee","55079","Milwaukee","43.1132","-87.9003","13950","2545","polygon","FALSE","TRUE","America/Chicago","2","53211 53217","1840003036"
"Vesper","Vesper","WI","Wisconsin","55141","Wood","55141","Wood","44.4805","-89.9676","558","186","polygon","FALSE","TRUE","America/Chicago","3","54489","1840002332"
"Columbus","Columbus","WI","Wisconsin","55021","Columbia","55021|55027","Columbia|Dodge","43.3354","-89.0300","6675.0","426","polygon","FALSE","TRUE","America/Chicago","3","53925","1840002708"
"New Post","New Post","WI","Wisconsin","55113","Sawyer","55113","Sawyer","45.8965","-91.1930","258","4","polygon","FALSE","FALSE","America/Chicago","3","54843 54828","1840004010"
"Marshall","Marshall","WI","Wisconsin","55025","Dane","55025","Dane","43.1726","-89.0614","3944.0","721","polygon","FALSE","TRUE","America/Chicago","3","53559","1840002917"
"Brodhead","Brodhead","WI","Wisconsin","55045","Green","55045|55105","Green|Rock","42.6168","-89.3756","3463.0","701","polygon","FALSE","TRUE","America/Chicago","3","53520","1840002460"
"Clam Lake","Clam Lake","WI","Wisconsin","55003","Ashland","55003","Ashland","46.1579","-90.9056","21","20","polygon","FALSE","FALSE","America/Chicago","3","54517","1840026073"
"Bloomington","Bloomington","WI","Wisconsin","55043","Grant","55043","Grant","42.8933","-90.9265","707","215","polygon","FALSE","TRUE","America/Chicago","3","53804","1840002970"
"Wittenberg","Wittenberg","WI","Wisconsin","55115","Shawano","55115","Shawano","44.8269","-89.1664","1017","216","polygon","FALSE","TRUE","America/Chicago","3","54499","1840002259"
"Drummond","Drummond","WI","Wisconsin","55007","Bayfield","55007","Bayfield","46.3436","-91.2500","119","32","polygon","FALSE","FALSE","America/Chicago","3","54832","1840026068"
"Mazomanie","Mazomanie","WI","Wisconsin","55025","Dane","55025","Dane","43.1731","-89.7954","3032.0","372","polygon","FALSE","TRUE","America/Chicago","3","53560","1840002918"
"Fairchild","Fairchild","WI","Wisconsin","55035","Eau Claire","55035","Eau Claire","44.6036","-90.9577","589","156","polygon","FALSE","TRUE","America/Chicago","3","54741","1840002293"
"Laona","Laona","WI","Wisconsin","55041","Forest","55041","Forest","45.5597","-88.6697","415","82","polygon","FALSE","FALSE","America/Chicago","3","54541","1840025285"
"Port Washington","Port Washington","WI","Wisconsin","55089","Ozaukee","55089","Ozaukee","43.3847","-87.8852","11762","780","polygon","FALSE","TRUE","America/Chicago","3","53074 53024","1840002826"
"Howards Grove","Howards Grove","WI","Wisconsin","55117","Sheboygan","55117","Sheboygan","43.8261","-87.8232","3265","566","polygon","FALSE","TRUE","America/Chicago","3","53083","1840002619"
"Mount Hope","Mount Hope","WI","Wisconsin","55043","Grant","55043","Grant","42.9697","-90.8596","221","309","polygon","FALSE","TRUE","America/Chicago","3","53816","1840002978"
"Kaukauna","Kaukauna","WI","Wisconsin","55087","Outagamie","55087","Outagamie","44.2778","-88.2645","16086","804","polygon","FALSE","TRUE","America/Chicago","3","54130","1840002403"
"Bellevue","Bellevue","WI","Wisconsin","55009","Brown","55009","Brown","44.4593","-87.9554","15687","422","polygon","FALSE","TRUE","America/Chicago","3","54311 54115","1840000308"
"Legend Lake","Legend Lake","WI","Wisconsin","55078","Menominee","55078","Menominee","44.8909","-88.5440","1269","29","polygon","FALSE","FALSE","America/Chicago","3","54135 54124","1840004029"
"Fort Atkinson","Fort Atkinson","WI","Wisconsin","55055","Jefferson","55055","Jefferson","42.9253","-88.8441","21299.0","851","polygon","FALSE","TRUE","America/Chicago","3","53538","1840003004"
"River Hills","River Hills","WI","Wisconsin","55079","Milwaukee","55079","Milwaukee","43.1717","-87.9353","1590","119","polygon","FALSE","TRUE","America/Chicago","3","53217","1840003048"
"Fitchburg","Fitchburg","WI","Wisconsin","55025","Dane","55025","Dane","42.9859","-89.4255","29485","325","polygon","FALSE","TRUE","America/Chicago","3","53575 53719 53711 53713 53744","1840002905"
"Chippewa Falls","Chippewa Falls","WI","Wisconsin","55017","Chippewa","55017","Chippewa","44.9359","-91.3902","14035","478","polygon","FALSE","TRUE","America/Chicago","3","54729 54774","1840002108"
"Appleton","Appleton","WI","Wisconsin","55087","Outagamie","55087|55015|55139","Outagamie|Calumet|Winnebago","44.2774","-88.3894","222222.0","1178","polygon","FALSE","TRUE","America/Chicago","2","54914 54915 54913 54911 54912 54919","1840002400"
"Scandinavia","Scandinavia","WI","Wisconsin","55135","Waupaca","55135","Waupaca","44.4608","-89.1460","354","155","polygon","FALSE","TRUE","America/Chicago","3","54977","1840002363"
"Knowlton","Knowlton","WI","Wisconsin","55073","Marathon","55073","Marathon","44.7189","-89.6803","140","54","polygon","FALSE","FALSE","America/Chicago","3","54455","1840025323"
"Rosholt","Rosholt","WI","Wisconsin","55097","Portage","55097","Portage","44.6300","-89.3052","488","179","polygon","FALSE","TRUE","America/Chicago","3","54473","1840002329"
"Barneveld","Barneveld","WI","Wisconsin","55049","Iowa","55049","Iowa","43.0117","-89.8968","1239","249","polygon","FALSE","TRUE","America/Chicago","3","53507","1840002957"
"Coon Valley","Coon Valley","WI","Wisconsin","55123","Vernon","55123","Vernon","43.7024","-91.0112","784","271","polygon","FALSE","TRUE","America/Chicago","3","54623","1840002694"
"Blue River","Blue River","WI","Wisconsin","55043","Grant","55043","Grant","43.1844","-90.5718","419","177","polygon","FALSE","TRUE","America/Chicago","3","53518","1840002971"
"West Bend","West Bend","WI","Wisconsin","55131","Washington","55131","Washington","43.4184","-88.1823","69577.0","809","polygon","FALSE","TRUE","America/Chicago","3","53090 53095","1840002829"
"Athens","Athens","WI","Wisconsin","55073","Marathon","55073","Marathon","45.0349","-90.0792","1088","171","polygon","FALSE","TRUE","America/Chicago","3","54411","1840002160"
"Baileys Harbor","Baileys Harbor","WI","Wisconsin","55029","Door","55029","Door","45.0659","-87.1330","209","47","polygon","FALSE","FALSE","America/Chicago","3","54202","1840026083"
"Oregon","Oregon","WI","Wisconsin","55025","Dane","55025","Dane","42.9252","-89.3887","12448.0","923","polygon","FALSE","TRUE","America/Chicago","3","53575","1840002922"
"Catawba","Catawba","WI","Wisconsin","55099","Price","55099","Price","45.5371","-90.5335","102","8","polygon","FALSE","TRUE","America/Chicago","3","54515","1840002009"
"Wisconsin Rapids","Wisconsin Rapids","WI","Wisconsin","55141","Wood","55141","Wood","44.3928","-89.8265","28277.0","496","polygon","FALSE","TRUE","America/Chicago","3","54495 54494","1840002333"
"Cuba City","Cuba City","WI","Wisconsin","55043","Grant","55043|55065","Grant|Lafayette","42.6036","-90.4318","2043","679","polygon","FALSE","TRUE","America/Chicago","3","53807","1840002974"
"Lone Rock","Lone Rock","WI","Wisconsin","55103","Richland","55103","Richland","43.1857","-90.2012","851","330","polygon","FALSE","TRUE","America/Chicago","3","53556","1840002819"
"Shorewood Hills","Shorewood Hills","WI","Wisconsin","55025","Dane","55025","Dane","43.0788","-89.4470","2024","969","polygon","FALSE","TRUE","America/Chicago","3","53705 53792 53791","1840002900"
"Winter","Winter","WI","Wisconsin","55113","Sawyer","55113","Sawyer","45.8221","-91.0130","300","146","polygon","FALSE","TRUE","America/Chicago","3","54896","1840001996"
"Coleman","Coleman","WI","Wisconsin","55075","Marinette","55075","Marinette","45.0695","-88.0348","696","232","polygon","FALSE","TRUE","America/Chicago","3","54112","1840003928"
"Marengo","Marengo","WI","Wisconsin","55003","Ashland","55003","Ashland","46.4219","-90.8081","127","46","polygon","FALSE","FALSE","America/Chicago","3","54855","1840026075"
"Argonne","Argonne","WI","Wisconsin","55041","Forest","55041","Forest","45.6582","-88.8777","185","128","polygon","FALSE","FALSE","America/Chicago","3","54511","1840025284"
"Dodgeville","Dodgeville","WI","Wisconsin","55049","Iowa","55049","Iowa","42.9660","-90.1297","4811.0","451","polygon","FALSE","TRUE","America/Chicago","3","53533 53595","1840002959"
"St. Joseph","St. Joseph","WI","Wisconsin","55063","La Crosse","55063","La Crosse","43.7855","-91.0436","516","105","polygon","FALSE","FALSE","America/Chicago","3","54601","1840025399"
"Turtle Lake","Turtle Lake","WI","Wisconsin","55005","Barron","55005|55095","Barron|Polk","45.3934","-92.1451","1011","136","polygon","FALSE","TRUE","America/Chicago","3","54889","1840002066"
"Beloit","Beloit","WI","Wisconsin","55105","Rock","55105","Rock","42.5230","-89.0184","63498.0","819","polygon","FALSE","TRUE","America/Chicago","3","53511 53512","1840002471"
"Glen Haven","Glen Haven","WI","Wisconsin","55043","Grant","55043","Grant","42.8313","-91.0633","86","14","polygon","FALSE","FALSE","America/Chicago","3","53810","1840025448"
"Hager City","Hager City","WI","Wisconsin","55093","Pierce","55093","Pierce","44.6012","-92.5336","283","56","polygon","FALSE","FALSE","America/Chicago","3","54014","1840025343"
"Green Bay","Green Bay","WI","Wisconsin","55009","Brown","55009","Brown","44.5150","-87.9896","208625.0","892","polygon","FALSE","TRUE","America/Chicago","2","54311 54302 54304 54303 54301 54305 54306 54308","1840002344"
"Barron","Barron","WI","Wisconsin","55005","Barron","55005","Barron","45.4015","-91.8476","3190.0","439","polygon","FALSE","TRUE","America/Chicago","3","54812","1840002069"
"Suamico","Suamico","WI","Wisconsin","55009","Brown","55009","Brown","44.6352","-88.0664","12816","136","polygon","FALSE","TRUE","America/Chicago","3","54173 54313","1840000309"
"Ettrick","Ettrick","WI","Wisconsin","55121","Trempealeau","55121","Trempealeau","44.1695","-91.2650","517","269","polygon","FALSE","TRUE","America/Chicago","3","54627","1840002390"
"Stockholm","Stockholm","WI","Wisconsin","55091","Pepin","55091","Pepin","44.4852","-92.2633","64","26","polygon","FALSE","TRUE","America/Chicago","3","54769","1840002350"
"Cross Plains","Cross Plains","WI","Wisconsin","55025","Dane","55025","Dane","43.1146","-89.6475","4241","933","polygon","FALSE","TRUE","America/Chicago","3","53528","1840002911"
"Barronett","Barronett","WI","Wisconsin","55005","Barron","55005","Barron","45.6363","-91.9942","137","69","polygon","FALSE","FALSE","America/Chicago","3","54813","1840025301"
"Cobb","Cobb","WI","Wisconsin","55049","Iowa","55049","Iowa","42.9661","-90.3296","451","195","polygon","FALSE","TRUE","America/Chicago","3","53526","1840002958"
"Eagle Lake","Eagle Lake","WI","Wisconsin","55101","Racine","55101","Racine","42.7014","-88.1291","1149","203","polygon","FALSE","FALSE","America/Chicago","3","53139","1840004480"
"Tomahawk","Tomahawk","WI","Wisconsin","55069","Lincoln","55069","Lincoln","45.4746","-89.7228","2737.0","156","polygon","FALSE","TRUE","America/Chicago","3","54487","1840001561"
"Gordon","Gordon","WI","Wisconsin","55031","Douglas","55031","Douglas","46.2409","-91.7995","213","44","polygon","FALSE","FALSE","America/Chicago","3","54838","1840026065"
"Potter","Potter","WI","Wisconsin","55015","Calumet","55015","Calumet","44.1202","-88.0991","242","184","polygon","FALSE","TRUE","America/Chicago","3","54110 54160","1840002523"
"Cottage Grove","Cottage Grove","WI","Wisconsin","55025","Dane","55025","Dane","43.0908","-89.2026","6939","672","polygon","FALSE","TRUE","America/Chicago","3","53527","1840002910"
"Balsam Lake","Balsam Lake","WI","Wisconsin","55095","Polk","55095","Polk","45.4585","-92.4528","981","174","polygon","FALSE","TRUE","America/Chicago","3","54810","1840002050"
"Sandy Hook","Sandy Hook","WI","Wisconsin","55043","Grant","55043","Grant","42.5466","-90.6168","405","111","polygon","FALSE","FALSE","America/Chicago","3","53811","1840025450"
"Taycheedah","Taycheedah","WI","Wisconsin","55039","Fond du Lac","55039","Fond du Lac","43.8122","-88.3914","908","474","polygon","FALSE","FALSE","America/Chicago","3","54937 54935","1840024010"
"St. Cloud","St. Cloud","WI","Wisconsin","55039","Fond du Lac","55039","Fond du Lac","43.8245","-88.1687","463","194","polygon","FALSE","TRUE","America/Chicago","3","53079","1840002611"
"West Salem","West Salem","WI","Wisconsin","55063","La Crosse","55063","La Crosse","43.8989","-91.0882","5026","579","polygon","FALSE","TRUE","America/Chicago","3","54669","1840002575"
"Washburn","Washburn","WI","Wisconsin","55007","Bayfield","55007","Bayfield","46.6769","-90.9017","2048","202","polygon","FALSE","TRUE","America/Chicago","3","54891","1840003913"
"Wausaukee","Wausaukee","WI","Wisconsin","55075","Marinette","55075","Marinette","45.3780","-87.9552","561","157","polygon","FALSE","TRUE","America/Chicago","3","54177","1840003927"
"Goodman","Goodman","WI","Wisconsin","55075","Marinette","55075","Marinette","45.6231","-88.3518","237","55","polygon","FALSE","FALSE","America/Chicago","3","54125","1840026081"
"Spring Valley","Spring Valley","WI","Wisconsin","55093","Pierce","55093","Pierce","44.8500","-92.2443","1372","131","polygon","FALSE","TRUE","America/Chicago","3","54767","1840002282"
"Verona","Verona","WI","Wisconsin","55025","Dane","55025","Dane","42.9884","-89.5381","13107","709","polygon","FALSE","TRUE","America/Chicago","3","53593","1840002903"
"Valders","Valders","WI","Wisconsin","55071","Manitowoc","55071","Manitowoc","44.0696","-87.8859","925","248","polygon","FALSE","TRUE","America/Chicago","3","54245","1840002207"
"Hurley","Hurley","WI","Wisconsin","55051","Iron","55051","Iron","46.4462","-90.1983","1441","172","polygon","FALSE","TRUE","America/Menominee","3","54534","1840001952"
"West Allis","West Allis","WI","Wisconsin","55079","Milwaukee","55079","Milwaukee","43.0068","-88.0296","59934","2033","polygon","FALSE","TRUE","America/Chicago","2","53219 53214 53227","1840003034"
"Hustler","Hustler","WI","Wisconsin","55057","Juneau","55057","Juneau","43.8773","-90.2658","189","104","polygon","FALSE","TRUE","America/Chicago","3","54637 54618","1840002226"
"Caroline","Caroline","WI","Wisconsin","55115","Shawano","55115","Shawano","44.7220","-88.8948","228","74","polygon","FALSE","FALSE","America/Chicago","3","54928","1840023919"
"Iron River","Iron River","WI","Wisconsin","55007","Bayfield","55007","Bayfield","46.5670","-91.4070","764","47","polygon","FALSE","FALSE","America/Chicago","3","54847","1840026071"
"Gratiot","Gratiot","WI","Wisconsin","55065","Lafayette","55065","Lafayette","42.5801","-90.0235","233","151","polygon","FALSE","TRUE","America/Chicago","3","53541","1840002499"
"Neopit","Neopit","WI","Wisconsin","55078","Menominee","55078","Menominee","44.9877","-88.8227","908","28","polygon","FALSE","FALSE","America/Chicago","3","54150","1840004030"
"Stanley","Stanley","WI","Wisconsin","55017","Chippewa","55017|55019","Chippewa|Clark","44.9597","-90.9424","3499.0","331","polygon","FALSE","TRUE","America/Chicago","3","54768","1840002105"
"Montello","Montello","WI","Wisconsin","55077","Marquette","55077","Marquette","43.7938","-89.3336","1445","292","polygon","FALSE","TRUE","America/Chicago","3","53949","1840002595"
"Mondovi","Mondovi","WI","Wisconsin","55011","Buffalo","55011","Buffalo","44.5712","-91.6667","2632","265","polygon","FALSE","TRUE","America/Chicago","3","54755","1840002381"
"Clayton","Clayton","WI","Wisconsin","55095","Polk","55095","Polk","45.3260","-92.1710","550","65","polygon","FALSE","TRUE","America/Chicago","3","54004","1840002052"
"Brown Deer","Brown Deer","WI","Wisconsin","55079","Milwaukee","55079","Milwaukee","43.1743","-87.9750","11964","1050","polygon","FALSE","TRUE","America/Chicago","3","53209 53223","1840003041"
"Boaz","Boaz","WI","Wisconsin","55103","Richland","55103","Richland","43.3299","-90.5277","150","160","polygon","FALSE","TRUE","America/Chicago","3","53573 53581","1840002817"
"Endeavor","Endeavor","WI","Wisconsin","55077","Marquette","55077","Marquette","43.7163","-89.4695","461","243","polygon","FALSE","TRUE","America/Chicago","3","53930","1840000335"
"Oliver","Oliver","WI","Wisconsin","55031","Douglas","55031","Douglas","46.6493","-92.1883","410","76","polygon","FALSE","TRUE","America/Chicago","3","54880","1840003911"
"Port Edwards","Port Edwards","WI","Wisconsin","55141","Wood","55141","Wood","44.3484","-89.8540","1778","131","polygon","FALSE","TRUE","America/Chicago","3","54469 54495 54494","1840002340"
"Westboro","Westboro","WI","Wisconsin","55119","Taylor","55119","Taylor","45.3608","-90.2934","145","30","polygon","FALSE","FALSE","America/Chicago","3","54490","1840025309"
"Sobieski","Sobieski","WI","Wisconsin","55083","Oconto","55083","Oconto","44.7226","-88.0659","366","112","polygon","FALSE","FALSE","America/Chicago","3","54171 54141","1840025314"
"Elderon","Elderon","WI","Wisconsin","55073","Marathon","55073","Marathon","44.7843","-89.2480","179","61","polygon","FALSE","TRUE","America/Chicago","3","54427 54499 54429","1840002165"
"Lannon","Lannon","WI","Wisconsin","55133","Waukesha","55133","Waukesha","43.1522","-88.1604","1200","187","polygon","FALSE","TRUE","America/Chicago","3","53046","1840003014"
"Eureka","Eureka","WI","Wisconsin","55139","Winnebago","55139","Winnebago","44.0073","-88.8426","560","211","polygon","FALSE","FALSE","America/Chicago","3","54963 54934","1840025389"
"Sturgeon Bay","Sturgeon Bay","WI","Wisconsin","55029","Door","55029","Door","44.8228","-87.3661","8405.0","350","polygon","FALSE","TRUE","America/Chicago","3","54235","1840003935"
